023,,,R,V*24
$GNVTG,195.63,T,,M,0.000,N,0.001,K,D*2F
$GNGSA,A,3,05,06,07,11,13,15,20,29,30,,,,0.71,0.40,0.59,1*07
$GNGSA,A,3,69,70,71,78,79,84,85,,,,,,0.71,0.40,0.59,2*02
$GNGSA,A,3,03,07,08,13,15,26,,,,,,,0.71,0.40,0.59,3*03
$GNGSA,A,3,02,03,04,06,07,08,09,10,13,16,23,25,0.71,0.40,0.59,4*0D
$GNGSA,A,3,03,04,07,,,,,,,,,,0.71,0.40,0.59,5*0B
"
agip2.gcm.collector.plugin.core.contents.persist.mongo.nmea.Nmea,652dd450e4b0775fde0a3b52,2023-10-17T00:24:48.672Z,2023-10-17T00:24:48.000Z,f95e0f0fd0ec45969b40da2a681114e1,"$GNGGA,002448.000,3555.846854,N,12656.564001,E,4,48,0.43,13.1,M,20.5,M,1.0,*68
$GNRMC,002448.000,A,3555.846854,N,12656.564001,E,0.002,195.63,171023,,,R,V*2A
$GNVTG,195.63,T,,M,0.002,N,0.004,K,D*28
$GNGSA,A,3,05,06,07,11,13,15,20,29,30,,,,0.80,0.43,0.68,1*08
$GNGSA,A,3,69,70,71,78,79,84,85,,,,,,0.80,0.43,0.68,2*0D
$GNGSA,A,3,03,07,08,13,15,26,,,,,,,0.80,0.43,0.68,3*0C
$GNGSA,A,3,02,03,04,06,07,08,09,10,13,16,23,25,0.80,0.43,0.68,4*02
$GNGSA,A,3,03,04,07,,,,,,,,,,0.80,0.43,0.68,5*04
"
agip2.gcm.collector.plugin.core.contents.persist.mongo.nmea.Nmea,652dd451e4b0775fde0a3c22,2023-10-17T00:24:49.602Z,2023-10-17T00:24:49.000Z,f95e0f0fd0ec45969b40da2a681114e1,"$GNGGA,002449.000,3555.846854,N,12656.564002,E,4,48,0.40,13.1,M,20.5,M,1.0,*69
$GNRMC,002449.000,A,3555.846854,N,12656.564002,E,0.000,195.63,171023,,,R,V*2A
$GNVTG,195.63,T,,M,0.000,N,0.001,K,D*2F
$GNGSA,A,3,05,06,07,11,13,15,20,29,30,,,,0.72,0.40,0.60,1*0E
$GNGSA,A,3,69,70,71,78,79,84,85,,,,,,0.72,0.40,0.60,2*0B
$GNGSA,A,3,03,07,08,13,15,26,,,,,,,0.72,0.40,0.60,3*0A
$GNGSA,A,3,02,03,04,06,07,08,09,10,13,16,23,25,0.72,0.40,0.60,4*04
$GNGSA,A,3,03,04,07,,,,,,,,,,0.72,0.40,0.60,5*02
"
agip2.gcm.collector.plugin.core.contents.persist.mongo.nmea.Nmea,652dd452e4b0775fde0a3d68,2023-10-17T00:24:50.662Z,2023-10-17T00:24:50.000Z,f95e0f0fd0ec45969b40da2a681114e1,"$GNGGA,002450.000,3555.846854,N,12656.564002,E,4,48,0.41,13.1,M,20.5,M,1.0,*60
$GNRMC,002450.000,A,3555.846854,N,12656.564002,E,0.002,195.63,171023,,,R,V*20
$GNVTG,195.63,T,,M,0.002,N,0.004,K,D*28
$GNGSA,A,3,05,06,07,11,13,15,20,29,30,,,,0.73,0.41,0.61,1*0F
$GNGSA,A,3,69,70,71,78,79,84,85,,,,,,0.73,0.41,0.61,2*0A
$GNGSA,A,3,03,07,08,13,15,26,,,,,,,0.73,0.41,0.61,3*0B
$GNGSA,A,3,02,03,04,06,07,08,09,10,13,16,23,25,0.73,0.41,0.61,4*05
$GNGSA,A,3,03,04,07,,,,,,,,,,0.73,0.41,0.61,5*03
"
agip2.gcm.collector.plugin.core.contents.persist.mongo.nmea.Nmea,652dd453e4b0775fde0a3e29,2023-10-17T00:24:51.592Z,2023-10-17T00:24:51.000Z,f95e0f0fd0ec45969b40da2a681114e1,"$GNGGA,002451.000,3555.846854,N,12656.564002,E,4,48,0.41,13.1,M,20.5,M,1.0,*61
$GNRMC,002451.000,A,3555.846854,N,12656.564002,E,0.001,195.63,171023,,,R,V*22
$GNVTG,195.63,T,,M,0.001,N,0.002,K,D*2D
$GNGSA,A,3,05,06,07,11,13,15,20,29,30,,,,0.74,0.41,0.62,1*0B
$GNGSA,A,3,69,70,71,78,79,84,85,,,,,,0.74,0.41,0.62,2*0E
$GNGSA,A,3,03,07,08,13,15,26,,,,,,,0.74,0.41,0.62,3*0F
$GNGSA,A,3,02,03,04,06,07,08,09,10,13,16,23,25,0.74,0.41,0.62,4*01
$GNGSA,A,3,03,04,07,,,,,,,,,,0.74,0.41,0.62,5*07
"
agip2.gcm.collector.plugin.core.contents.persist.mongo.nmea.Nmea,652dd454e4b0775fde0a3f69,2023-10-17T00:24:52.632Z,2023-10-17T00:24:52.000Z,f95e0f0fd0ec45969b40da2a681114e1,"$GNGGA,002452.000,3555.846854,N,12656.564002,E,4,48,0.41,13.1,M,20.5,M,1.0,*62
$GNRMC,002452.000,A,3555.846854,N,12656.564002,E,0.002,195.63,171023,,,R,V*22
$GNVTG,195.63,T,,M,0.002,N,0.004,K,D*28
$GNGSA,A,3,05,06,07,11,13,15,20,29,30,,,,0.75,0.41,0.63,1*0B
$GNGSA,A,3,69,70,71,78,79,84,85,,,,,,0.75,0.41,0.63,2*0E
$GNGSA,A,3,03,07,08,13,15,26,,,,,,,0.75,0.41,0.63,3*0F
$GNGSA,A,3,02,03,04,06,07,08,09,10,13,16,23,25,0.75,0.41,0.63,4*01
$GNGSA,A,3,03,04,07,,,,,,,,,,0.75,0.41,0.63,5*07
"
agip2.gcm.collector.plugin.core.contents.persist.mongo.nmea.Nmea,652dd455e4b0775fde0a4050,2023-10-17T00:24:53.602Z,2023-10-17T00:24:53.000Z,f95e0f0fd0ec45969b40da2a681114e1,"$GNGGA,002453.000,3555.846853,N,12656.564002,E,4,48,0.41,13.1,M,20.5,M,1.0,*64
$GNRMC,002453.000,A,3555.846853,N,12656.564002,E,0.001,195.63,171023,,,R,V*27
$GNVTG,195.63,T,,M,0.001,N,0.002,K,D*2D
$GNGSA,A,3,05,06,07,11,13,15,20,29,30,,,,0.73,0.41,0.61,1*0F
$GNGSA,A,3,69,70,71,78,79,84,85,,,,,,0.73,0.41,0.61,2*0A
$GNGSA,A,3,03,07,08,13,15,26,,,,,,,0.73,0.41,0.61,3*0B
$GNGSA,A,3,02,03,04,06,07,08,09,10,13,16,23,25,0.73,0.41,0.61,4*05
$GNGSA,A,3,03,04,07,,,,,,,,,,0.73,0.41,0.61,5*03
"
agip2.gcm.collector.plugin.core.contents.persist.mongo.nmea.Nmea,652dd456e4b0775fde0a4191,2023-10-17T00:24:54.662Z,2023-10-17T00:24:54.000Z,f95e0f0fd0ec45969b40da2a681114e1,"$GNGGA,002454.000,3555.846853,N,12656.564002,E,4,48,0.41,13.1,M,20.5,M,1.0,*63
$GNRMC,002454.000,A,3555.846853,N,12656.564002,E,0.002,195.63,171023,,,R,V*23
$GNVTG,195.63,T,,M,0.002,N,0.003,K,D*2F
$GNGSA,A,3,05,06,07,11,13,15,20,29,30,,,,0.75,0.41,0.63,1*0B
$GNGSA,A,3,69,70,71,78,79,84,85,,,,,,0.75,0.41,0.63,2*0E
$GNGSA,A,3,03,07,08,13,15,26,,,,,,,0.75,0.41,0.63,3*0F
$GNGSA,A,3,02,03,04,06,07,08,09,10,13,16,23,25,0.75,0.41,0.63,4*01
$GNGSA,A,3,03,04,07,,,,,,,,,,0.75,0.41,0.63,5*07
"
agip2.gcm.collector.plugin.core.contents.persist.mongo.nmea.Nmea,652dd457e4b0775fde0a425d,2023-10-17T00:24:55.602Z,2023-10-17T00:24:55.000Z,f95e0f0fd0ec45969b40da2a681114e1,"$GNGGA,002455.000,3555.846853,N,12656.564002,E,4,48,0.41,13.1,M,20.5,M,1.0,*62
$GNRMC,002455.000,A,3555.846853,N,12656.564002,E,0.001,195.63,171023,,,R,V*21
$GNVTG,195.63,T,,M,0.001,N,0.002,K,D*2D
$GNGSA,A,3,05,06,07,11,13,15,20,29,30,,,,0.75,0.41,0.63,1*0B
$GNGSA,A,3,69,70,71,78,79,84,85,,,,,,0.75,0.41,0.63,2*0E
$GNGSA,A,3,03,07,08,13,15,26,,,,,,,0.75,0.41,0.63,3*0F
$GNGSA,A,3,02,03,04,06,07,08,09,10,13,16,23,25,0.75,0.41,0.63,4*01
$GNGSA,A,3,03,04,07,,,,,,,,,,0.75,0.41,0.63,5*07
"
agip2.gcm.collector.plugin.core.contents.persist.mongo.nmea.Nmea,652dd458e4b0775fde0a4383,2023-10-17T00:24:56.632Z,2023-10-17T00:24:56.000Z,f95e0f0fd0ec45969b40da2a681114e1,"$GNGGA,002456.000,3555.846854,N,12656.564002,E,4,48,0.41,13.1,M,20.5,M,1.0,*66
$GNRMC,002456.000,A,3555.846854,N,12656.564002,E,0.001,195.63,171023,,,R,V*25
$GNVTG,195.63,T,,M,0.001,N,0.001,K,D*2E
$GNGSA,A,3,05,06,07,11,13,15,20,29,30,,,,0.73,0.41,0.61,1*0F
$GNGSA,A,3,69,70,71,78,79,84,85,,,,,,0.73,0.41,0.61,2*0A
$GNGSA,A,3,03,07,08,13,15,26,,,,,,,0.73,0.41,0.61,3*0B
$GNGSA,A,3,02,03,04,06,07,08,09,10,13,16,23,25,0.73,0.41,0.61,4*05
$GNGSA,A,3,03,04,07,,,,,,,,,,0.73,0.41,0.61,5*03
"
agip2.gcm.collector.plugin.core.contents.persist.mongo.nmea.Nmea,652dd459e4b0775fde0a4476,2023-10-17T00:24:57.602Z,2023-10-17T00:24:57.000Z,f95e0f0fd0ec45969b40da2a681114e1,"$GNGGA,002457.000,3555.846854,N,12656.564001,E,4,48,0.42,13.1,M,20.5,M,1.0,*67
$GNRMC,002457.000,A,3555.846854,N,12656.564001,E,0.001,195.63,171023,,,R,V*27
$GNVTG,195.63,T,,M,0.001,N,0.001,K,D*2E
$GNGSA,A,3,05,06,07,11,13,15,20,29,30,,,,0.78,0.42,0.66,1*00
$GNGSA,A,3,69,70,71,78,79,84,85,,,,,,0.78,0.42,0.66,2*05
$GNGSA,A,3,03,07,08,13,15,26,,,,,,,0.78,0.42,0.66,3*04
$GNGSA,A,3,02,03,04,06,07,08,09,10,13,16,23,25,0.78,0.42,0.66,4*0A
$GNGSA,A,3,03,04,07,,,,,,,,,,0.78,0.42,0.66,5*0C
"
agip2.gcm.collector.plugin.core.contents.persist.mongo.nmea.Nmea,652dd45ae4b0775fde0a459f,2023-10-17T00:24:58.642Z,2023-10-17T00:24:58.000Z,f95e0f0fd0ec45969b40da2a681114e1,"$GNGGA,002458.000,3555.846853,N,12656.564003,E,4,48,0.41,13.1,M,20.5,M,1.0,*6E
$GNRMC,002458.000,A,3555.846853,N,12656.564003,E,0.002,195.63,171023,,,R,V*2E
$GNVTG,195.63,T,,M,0.002,N,0.003,K,D*2F
$GNGSA,A,3,05,06,07,11,13,15,20,29,30,,,,0.77,0.41,0.65,1*0F
$GNGSA,A,3,69,70,71,78,79,84,85,,,,,,0.77,0.41,0.65,2*0A
$GNGSA,A,3,03,07,08,13,15,26,,,,,,,0.77,0.41,0.65,3*0B
$GNGSA,A,3,02,03,04,06,07,08,09,10,13,16,23,25,0.77,0.41,0.65,4*05
$GNGSA,A,3,03,04,07,,,,,,,,,,0.77,0.41,0.65,5*03
"
agip2.gcm.collector.plugin.core.contents.persist.mongo.nmea.Nmea,652dd45be4b0775fde0a4686,2023-10-17T00:24:59.602Z,2023-10-17T00:24:59.000Z,f95e0f0fd0ec45969b40da2a681114e1,"$GNGGA,002459.000,3555.846853,N,12656.564002,E,4,48,0.40,13.1,M,20.5,M,1.0,*6F
$GNRMC,002459.000,A,3555.846853,N,12656.564002,E,0.001,195.63,171023,,,R,V*2D
$GNVTG,195.63,T,,M,0.001,N,0.002,K,D*2D
$GNGSA,A,3,05,06,07,11,13,15,20,29,30,,,,0.76,0.40,0.65,1*0F
$GNGSA,A,3,69,70,71,78,79,84,85,,,,,,0.76,0.40,0.65,2*0A
$GNGSA,A,3,03,07,08,13,15,26,,,,,,,0.76,0.40,0.65,3*0B
$GNGSA,A,3,02,03,04,06,07,08,09,10,13,16,23,25,0.76,0.40,0.65,4*05
$GNGSA,A,3,03,04,07,,,,,,,,,,0.76,0.40,0.65,5*03
"
agip2.gcm.collector.plugin.core.contents.persist.mongo.nmea.Nmea,652dd45ce4b0775fde0a47bc,2023-10-17T00:25:00.642Z,2023-10-17T00:25:00.000Z,f95e0f0fd0ec45969b40da2a681114e1,"$GNGGA,002500.000,3555.846854,N,12656.564003,E,4,48,0.40,13.1,M,20.5,M,1.0,*64
$GNRMC,002500.000,A,3555.846854,N,12656.564003,E,0.003,195.63,171023,,,R,V*24
$GNVTG,195.63,T,,M,0.003,N,0.006,K,D*2B
$GNGSA,A,3,05,06,07,11,13,15,20,29,30,,,,0.74,0.40,0.62,1*0A
$GNGSA,A,3,69,70,71,78,79,84,85,,,,,,0.74,0.40,0.62,2*0F
$GNGSA,A,3,03,07,08,13,15,26,,,,,,,0.74,0.40,0.62,3*0E
$GNGSA,A,3,02,03,04,06,07,08,09,10,13,16,23,25,0.74,0.40,0.62,4*00
$GNGSA,A,3,03,04,07,,,,,,,,,,0.74,0.40,0.62,5*06
"
agip2.gcm.collector.plugin.core.contents.persist.mongo.nmea.Nmea,652dd45de4b0775fde0a48a1,2023-10-17T00:25:01.602Z,2023-10-17T00:25:01.000Z,f95e0f0fd0ec45969b40da2a681114e1,"$GNGGA,002501.000,3555.846854,N,12656.564002,E,4,48,0.42,13.1,M,20.5,M,1.0,*66
$GNRMC,002501.000,A,3555.846854,N,12656.564002,E,0.001,195.63,171023,,,R,V*26
$GNVTG,195.63,T,,M,0.001,N,0.001,K,D*2E
$GNGSA,A,3,05,06,07,11,13,15,20,29,30,,,,0.82,0.42,0.70,1*02
$GNGSA,A,3,69,70,71,78,79,84,85,,,,,,0.82,0.42,0.70,2*07
$GNGSA,A,3,03,07,08,13,15,26,,,,,,,0.82,0.42,0.70,3*06
$GNGSA,A,3,02,03,04,06,07,08,09,10,13,16,23,25,0.82,0.42,0.70,4*08
$GNGSA,A,3,03,04,07,,,,,,,,,,0.82,0.42,0.70,5*0E
"
agip2.gcm.collector.plugin.core.contents.persist.mongo.nmea.Nmea,652dd45ee4b0775fde0a49dd,2023-10-17T00:25:02.662Z,2023-10-17T00:25:02.000Z,f95e0f0fd0ec45969b40da2a681114e1,"$GNGGA,002502.000,3555.846853,N,12656.564002,E,4,48,0.41,13.1,M,20.5,M,1.0,*61
$GNRMC,002502.000,A,3555.846853,N,12656.564002,E,0.001,195.63,171023,,,R,V*22
$GNVTG,195.63,T,,M,0.001,N,0.002,K,D*2D
$GNGSA,A,3,05,06,07,11,13,15,20,29,30,,,,0.76,0.41,0.63,1*08
$GNGSA,A,3,69,70,71,78,79,84,85,,,,,,0.76,0.41,0.63,2*0D
$GNGSA,A,3,03,07,08,13,15,26,,,,,,,0.76,0.41,0.63,3*0C
$GNGSA,A,3,02,03,04,06,07,08,09,10,13,16,23,25,0.76,0.41,0.63,4*02
$GNGSA,A,3,03,04,07,,,,,,,,,,0.76,0.41,0.63,5*04
"
agip2.gcm.collector.plugin.core.contents.persist.mongo.nmea.Nmea,652dd45fe4b0775fde0a4ab5,2023-10-17T00:25:03.622Z,2023-10-17T00:25:03.000Z,f95e0f0fd0ec45969b40da2a681114e1,"$GNGGA,002503.000,3555.846854,N,12656.564002,E,4,48,0.41,13.1,M,20.5,M,1.0,*67
$GNRMC,002503.000,A,3555.846854,N,12656.564002,E,0.000,195.63,171023,,,R,V*25
$GNVTG,195.63,T,,M,0.000,N,0.001,K,D*2F
$GNGSA,A,3,05,06,07,11,13,15,20,29,30,,,,0.76,0.41,0.63,1*08
$GNGSA,A,3,69,70,71,78,79,84,85,,,,,,0.76,0.41,0.63,2*0D
$GNGSA,A,3,03,07,08,13,15,26,,,,,,,0.76,0.41,0.63,3*0C
$GNGSA,A,3,02,03,04,06,07,08,09,10,13,16,23,25,0.76,0.41,0.63,4*02
$GNGSA,A,3,03,04,07,,,,,,,,,,0.76,0.41,0.63,5*04
"
agip2.gcm.collector.plugin.core.contents.persist.mongo.nmea.Nmea,652dd460e4b0775fde0a4be5,2023-10-17T00:25:04.642Z,2023-10-17T00:25:04.000Z,f95e0f0fd0ec45969b40da2a681114e1,"$GNGGA,002504.000,3555.846854,N,12656.564002,E,4,48,0.42,13.1,M,20.5,M,1.0,*63
$GNRMC,002504.000,A,3555.846854,N,12656.564002,E,0.001,195.63,171023,,,R,V*23
$GNVTG,195.63,T,,M,0.001,N,0.001,K,D*2E
$GNGSA,A,3,05,06,07,11,13,15,20,29,30,,,,0.82,0.42,0.70,1*02
$GNGSA,A,3,69,70,71,78,79,84,85,,,,,,0.82,0.42,0.70,2*07
$GNGSA,A,3,03,07,08,13,15,26,,,,,,,0.82,0.42,0.70,3*06
$GNGSA,A,3,02,03,04,06,07,08,09,10,13,16,23,25,0.82,0.42,0.70,4*08
$GNGSA,A,3,03,04,07,,,,,,,,,,0.82,0.42,0.70,5*0E
"
agip2.gcm.collector.plugin.core.contents.persist.mongo.nmea.Nmea,652dd461e4b0775fde0a4cbd,2023-10-17T00:25:05.602Z,2023-10-17T00:25:05.000Z,f95e0f0fd0ec45969b40da2a681114e1,"$GNGGA,002505.000,3555.846853,N,12656.564001,E,4,48,0.42,13.1,M,20.5,M,1.0,*66
$GNRMC,002505.000,A,3555.846853,N,12656.564001,E,0.000,195.63,171023,,,R,V*27
$GNVTG,195.63,T,,M,0.000,N,0.000,K,D*2E
$GNGSA,A,3,05,06,07,11,13,15,20,29,30,,,,0.78,0.42,0.65,1*03
$GNGSA,A,3,69,70,71,78,79,84,85,,,,,,0.78,0.42,0.65,2*06
$GNGSA,A,3,03,07,08,13,15,26,,,,,,,0.78,0.42,0.65,3*07
$GNGSA,A,3,02,03,04,06,07,08,09,10,13,16,23,25,0.78,0.42,0.65,4*09
$GNGSA,A,3,03,04,07,,,,,,,,,,0.78,0.42,0.65,5*0F
"
agip2.gcm.collector.plugin.core.contents.persist.mongo.nmea.Nmea,652dd462e4b0775fde0a4df9,2023-10-17T00:25:06.662Z,2023-10-17T00:25:06.000Z,f95e0f0fd0ec45969b40da2a681114e1,"$GNGGA,002506.000,3555.846853,N,12656.564001,E,4,48,0.41,13.1,M,20.5,M,1.0,*66
$GNRMC,002506.000,A,3555.846853,N,12656.564001,E,0.002,195.63,171023,,,R,V*26
$GNVTG,195.63,T,,M,0.002,N,0.004,K,D*28
$GNGSA,A,3,05,06,07,11,13,15,20,29,30,,,,0.78,0.41,0.66,1*03
$GNGSA,A,3,69,70,71,78,79,84,85,,,,,,0.78,0.41,0.66,2*06
$GNGSA,A,3,03,07,08,13,15,26,,,,,,,0.78,0.41,0.66,3*07
$GNGSA,A,3,02,03,04,06,07,08,09,10,13,16,23,25,0.78,0.41,0.66,4*09
$GNGSA,A,3,03,04,07,,,,,,,,,,0.78,0.41,0.66,5*0F
"
agip2.gcm.collector.plugin.core.contents.persist.mongo.nmea.Nmea,652dd463e4b0775fde0a4ecc,2023-10-17T00:25:07.602Z,2023-10-17T00:25:07.000Z,f95e0f0fd0ec45969b40da2a681114e1,"$GNGGA,002507.000,3555.846853,N,12656.564001,E,4,48,0.41,13.1,M,20.5,M,1.0,*67
$GNRMC,002507.000,A,3555.846853,N,12656.564001,E,0.002,195.63,171023,,,R,V*27
$GNVTG,195.63,T,,M,0.002,N,0.003,K,D*2F
$GNGSA,A,3,05,06,07,11,13,15,20,29,30,,,,0.76,0.41,0.63,1*08
$GNGSA,A,3,69,70,71,78,79,84,85,,,,,,0.76,0.41,0.63,2*0D
$GNGSA,A,3,03,07,08,13,15,26,,,,,,,0.76,0.41,0.63,3*0C
$GNGSA,A,3,02,03,04,06,07,08,09,10,13,16,23,25,0.76,0.41,0.63,4*02
$GNGSA,A,3,03,04,07,,,,,,,,,,0.76,0.41,0.63,5*04
"
agip2.gcm.collector.plugin.core.contents.persist.mongo.nmea.Nmea,652dd464e4b0775fde0a4ff5,2023-10-17T00:25:08.642Z,2023-10-17T00:25:08.000Z,f95e0f0fd0ec45969b40da2a681114e1,"$GNGGA,002508.000,3555.846853,N,12656.564002,E,4,48,0.41,13.1,M,20.5,M,1.0,*6B
$GNRMC,002508.000,A,3555.846853,N,12656.564002,E,0.000,195.63,171023,,,R,V*29
$GNVTG,195.63,T,,M,0.000,N,0.000,K,D*2E
$GNGSA,A,3,05,06,07,11,13,15,20,29,30,,,,0.76,0.41,0.63,1*08
$GNGSA,A,3,69,70,71,78,79,84,85,,,,,,0.76,0.41,0.63,2*0D
$GNGSA,A,3,03,07,08,13,15,26,,,,,,,0.76,0.41,0.63,3*0C
$GNGSA,A,3,02,03,04,06,07,08,09,10,13,16,23,25,0.76,0.41,0.63,4*02
$GNGSA,A,3,03,04,07,,,,,,,,,,0.76,0.41,0.63,5*04
"
agip2.gcm.collector.plugin.core.contents.persist.mongo.nmea.Nmea,652dd465e4b0775fde0a50df,2023-10-17T00:25:09.612Z,2023-10-17T00:25:09.000Z,f95e0f0fd0ec45969b40da2a681114e1,"$GNGGA,002509.000,3555.846853,N,12656.564002,E,4,48,0.41,13.1,M,20.5,M,1.0,*6A
$GNRMC,002509.000,A,3555.846853,N,12656.564002,E,0.001,195.63,171023,,,R,V*29
$GNVTG,195.63,T,,M,0.001,N,0.002,K,D*2D
$GNGSA,A,3,05,06,07,11,13,15,20,29,30,,,,0.76,0.41,0.63,1*08
$GNGSA,A,3,69,70,71,78,79,84,85,,,,,,0.76,0.41,0.63,2*0D
$GNGSA,A,3,03,07,08,13,15,26,,,,,,,0.76,0.41,0.63,3*0C
$GNGSA,A,3,02,03,04,06,07,08,09,10,13,16,23,25,0.76,0.41,0.63,4*02
$GNGSA,A,3,03,04,07,,,,,,,,,,0.76,0.41,0.63,5*04
"
agip2.gcm.collector.plugin.core.contents.persist.mongo.nmea.Nmea,652dd466e4b0775fde0a5201,2023-10-17T00:25:10.632Z,2023-10-17T00:25:10.000Z,f95e0f0fd0ec45969b40da2a681114e1,"$GNGGA,002510.000,3555.846853,N,12656.564003,E,4,48,0.41,13.1,M,20.5,M,1.0,*63
$GNRMC,002510.000,A,3555.846853,N,12656.564003,E,0.001,195.63,171023,,,R,V*20
$GNVTG,195.63,T,,M,0.001,N,0.001,K,D*2E
$GNGSA,A,3,05,06,07,11,13,15,20,29,30,,,,0.76,0.41,0.63,1*08
$GNGSA,A,3,69,70,71,78,79,84,85,,,,,,0.76,0.41,0.63,2*0D
$GNGSA,A,3,03,07,08,13,15,26,,,,,,,0.76,0.41,0.63,3*0C
$GNGSA,A,3,02,03,04,06,07,08,09,10,13,16,23,25,0.76,0.41,0.63,4*02
$GNGSA,A,3,03,04,07,,,,,,,,,,0.76,0.41,0.63,5*04
"
agip2.gcm.collector.plugin.core.contents.persist.mongo.nmea.Nmea,652dd467e4b0775fde0a52ea,2023-10-17T00:25:11.602Z,2023-10-17T00:25:11.000Z,f95e0f0fd0ec45969b40da2a681114e1,"$GNGGA,002511.000,3555.846853,N,12656.564002,E,4,48,0.41,13.1,M,20.5,M,1.0,*63
$GNRMC,002511.000,A,3555.846853,N,12656.564002,E,0.001,195.63,171023,,,R,V*20
$GNVTG,195.63,T,,M,0.001,N,0.002,K,D*2D
$GNGSA,A,3,05,06,07,11,13,15,20,29,30,,,,0.76,0.41,0.63,1*08
$GNGSA,A,3,69,70,71,78,79,84,85,,,,,,0.76,0.41,0.63,2*0D
$GNGSA,A,3,03,07,08,13,15,26,,,,,,,0.76,0.41,0.63,3*0C
$GNGSA,A,3,02,03,04,06,07,08,09,10,13,16,23,25,0.76,0.41,0.63,4*02
$GNGSA,A,3,03,04,07,,,,,,,,,,0.76,0.41,0.63,5*04
"
agip2.gcm.collector.plugin.core.contents.persist.mongo.nmea.Nmea,652dd468e4b0775fde0a541d,2023-10-17T00:25:12.642Z,2023-10-17T00:25:12.000Z,f95e0f0fd0ec45969b40da2a681114e1,"$GNGGA,002512.000,3555.846853,N,12656.564001,E,4,48,0.41,13.1,M,20.5,M,1.0,*63
$GNRMC,002512.000,A,3555.846853,N,12656.564001,E,0.001,195.63,171023,,,R,V*20
$GNVTG,195.63,T,,M,0.001,N,0.001,K,D*2E
$GNGSA,A,3,05,06,07,11,13,15,20,29,30,,,,0.76,0.41,0.64,1*0F
$GNGSA,A,3,69,70,71,78,79,84,85,,,,,,0.76,0.41,0.64,2*0A
$GNGSA,A,3,03,07,08,13,15,26,,,,,,,0.76,0.41,0.64,3*0B
$GNGSA,A,3,02,03,04,06,07,08,09,10,13,16,23,25,0.76,0.41,0.64,4*05
$GNGSA,A,3,03,04,07,,,,,,,,,,0.76,0.41,0.64,5*03
"
agip2.gcm.collector.plugin.core.contents.persist.mongo.nmea.Nmea,652dd469e4b0775fde0a5500,2023-10-17T00:25:13.602Z,2023-10-17T00:25:13.000Z,f95e0f0fd0ec45969b40da2a681114e1,"$GNGGA,002513.000,3555.846853,N,12656.564002,E,4,48,0.42,13.1,M,20.5,M,1.0,*62
$GNRMC,002513.000,A,3555.846853,N,12656.564002,E,0.001,195.63,171023,,,R,V*22
$GNVTG,195.63,T,,M,0.001,N,0.001,K,D*2E
$GNGSA,A,3,05,06,07,11,13,15,20,29,30,,,,0.77,0.42,0.64,1*0D
$GNGSA,A,3,69,70,71,78,79,84,85,,,,,,0.77,0.42,0.64,2*08
$GNGSA,A,3,03,07,08,13,15,26,,,,,,,0.77,0.42,0.64,3*09
$GNGSA,A,3,02,03,04,06,07,08,09,10,13,16,23,25,0.77,0.42,0.64,4*07
$GNGSA,A,3,03,04,07,,,,,,,,,,0.77,0.42,0.64,5*01
"
agip2.gcm.collector.plugin.core.contents.persist.mongo.nmea.Nmea,652dd46ae4b0775fde0a561c,2023-10-17T00:25:14.632Z,2023-10-17T00:25:14.000Z,f95e0f0fd0ec45969b40da2a681114e1,"$GNGGA,002514.000,3555.846853,N,12656.564003,E,4,48,0.42,13.1,M,20.5,M,1.0,*64
$GNRMC,002514.000,A,3555.846853,N,12656.564003,E,0.002,195.63,171023,,,R,V*27
$GNVTG,195.63,T,,M,0.002,N,0.004,K,D*28
$GNGSA,A,3,05,06,07,11,13,15,20,29,30,,,,0.76,0.42,0.64,1*0C
$GNGSA,A,3,69,70,71,78,79,84,85,,,,,,0.76,0.42,0.64,2*09
$GNGSA,A,3,03,07,08,13,15,26,,,,,,,0.76,0.42,0.64,3*08
$GNGSA,A,3,02,03,04,06,07,08,09,10,13,16,23,25,0.76,0.42,0.64,4*06
$GNGSA,A,3,03,04,07,,,,,,,,,,0.76,0.42,0.64,5*00
"
agip2.gcm.collector.plugin.core.contents.persist.mongo.nmea.Nmea,652dd46be4b0775fde0a5712,2023-10-17T00:25:15.612Z,2023-10-17T00:25:15.000Z,f95e0f0fd0ec45969b40da2a681114e1,"$GNGGA,002515.000,3555.846853,N,12656.564003,E,4,48,0.42,13.1,M,20.5,M,1.0,*65
$GNRMC,002515.000,A,3555.846853,N,12656.564003,E,0.000,195.63,171023,,,R,V*24
$GNVTG,195.63,T,,M,0.000,N,0.001,K,D*2F
$GNGSA,A,3,05,06,07,11,13,15,20,29,30,,,,0.77,0.42,0.65,1*0C
$GNGSA,A,3,69,70,71,78,79,84,85,,,,,,0.77,0.42,0.65,2*09
$GNGSA,A,3,03,07,08,13,15,26,,,,,,,0.77,0.42,0.65,3*08
$GNGSA,A,3,02,03,04,06,07,08,09,10,13,16,23,25,0.77,0.42,0.65,4*06
$GNGSA,A,3,03,04,07,,,,,,,,,,0.77,0.42,0.65,5*00
"
agip2.gcm.collector.plugin.core.contents.persist.mongo.nmea.Nmea,652dd46ce4b0775fde0a584f,2023-10-17T00:25:16.672Z,2023-10-17T00:25:16.000Z,f95e0f0fd0ec45969b40da2a681114e1,"$GNGGA,002516.000,3555.846853,N,12656.564003,E,4,48,0.42,13.1,M,20.5,M,1.0,*66
$GNRMC,002516.000,A,3555.846853,N,12656.564003,E,0.000,195.63,171023,,,R,V*27
$GNVTG,195.63,T,,M,0.000,N,0.001,K,D*2F
$GNGSA,A,3,05,06,07,11,13,15,20,29,30,,,,0.77,0.42,0.65,1*0C
$GNGSA,A,3,69,70,71,78,79,84,85,,,,,,0.77,0.42,0.65,2*09
$GNGSA,A,3,03,07,08,13,15,26,,,,,,,0.77,0.42,0.65,3*08
$GNGSA,A,3,02,03,04,06,07,08,09,10,13,16,23,25,0.77,0.42,0.65,4*06
$GNGSA,A,3,03,04,07,,,,,,,,,,0.77,0.42,0.65,5*00
"
agip2.gcm.collector.plugin.core.contents.persist.mongo.nmea.Nmea,652dd46de4b0775fde0a5922,2023-10-17T00:25:17.610Z,2023-10-17T00:25:17.000Z,f95e0f0fd0ec45969b40da2a681114e1,"$GNGGA,002517.000,3555.846853,N,12656.564003,E,4,48,0.41,13.1,M,20.5,M,1.0,*64
$GNRMC,002517.000,A,3555.846853,N,12656.564003,E,0.001,195.63,171023,,,R,V*27
$GNVTG,195.63,T,,M,0.001,N,0.002,K,D*2D
$GNGSA,A,3,05,06,07,11,13,15,20,29,30,,,,0.73,0.41,0.61,1*0F
$GNGSA,A,3,69,70,71,78,79,84,85,,,,,,0.73,0.41,0.61,2*0A
$GNGSA,A,3,03,07,08,13,15,26,,,,,,,0.73,0.41,0.61,3*0B
$GNGSA,A,3,02,03,04,06,07,08,09,10,13,16,23,25,0.73,0.41,0.61,4*05
$GNGSA,A,3,03,04,07,,,,,,,,,,0.73,0.41,0.61,5*03
"
agip2.gcm.collector.plugin.core.contents.persist.mongo.nmea.Nmea,652dd46ee4b0775fde0a5a5e,2023-10-17T00:25:18.672Z,2023-10-17T00:25:18.000Z,f95e0f0fd0ec45969b40da2a681114e1,"$GNGGA,002518.000,3555.846853,N,12656.564002,E,4,48,0.41,13.1,M,20.5,M,1.0,*6A
$GNRMC,002518.000,A,3555.846853,N,12656.564002,E,0.000,195.63,171023,,,R,V*28
$GNVTG,195.63,T,,M,0.000,N,0.001,K,D*2F
$GNGSA,A,3,05,06,07,11,13,15,20,29,30,,,,0.73,0.41,0.61,1*0F
$GNGSA,A,3,69,70,71,78,79,84,85,,,,,,0.73,0.41,0.61,2*0A
$GNGSA,A,3,03,07,08,13,15,26,,,,,,,0.73,0.41,0.61,3*0B
$GNGSA,A,3,02,03,04,06,07,08,09,10,13,16,23,25,0.73,0.41,0.61,4*05
$GNGSA,A,3,03,04,07,,,,,,,,,,0.73,0.41,0.61,5*03
"
agip2.gcm.collector.plugin.core.contents.persist.mongo.nmea.Nmea,652dd46fe4b0775fde0a5b2e,2023-10-17T00:25:19.602Z,2023-10-17T00:25:19.000Z,f95e0f0fd0ec45969b40da2a681114e1,"$GNGGA,002519.000,3555.846853,N,12656.564002,E,4,48,0.42,13.1,M,20.5,M,1.0,*68
$GNRMC,002519.000,A,3555.846853,N,12656.564002,E,0.001,195.63,171023,,,R,V*28
$GNVTG,195.63,T,,M,0.001,N,0.002,K,D*2D
$GNGSA,A,3,05,06,07,11,13,15,20,29,30,,,,0.77,0.42,0.64,1*0D
$GNGSA,A,3,69,70,71,78,79,84,85,,,,,,0.77,0.42,0.64,2*08
$GNGSA,A,3,03,07,08,13,15,26,,,,,,,0.77,0.42,0.64,3*09
$GNGSA,A,3,02,03,04,06,07,08,09,10,13,16,23,25,0.77,0.42,0.64,4*07
$GNGSA,A,3,03,04,07,,,,,,,,,,0.77,0.42,0.64,5*01
"
agip2.gcm.collector.plugin.core.contents.persist.mongo.nmea.Nmea,652dd470e4b0775fde0a5c68,2023-10-17T00:25:20.662Z,2023-10-17T00:25:20.000Z,f95e0f0fd0ec45969b40da2a681114e1,"$GNGGA,002520.000,3555.846853,N,12656.564003,E,4,48,0.43,13.1,M,20.5,M,1.0,*62
$GNRMC,002520.000,A,3555.846853,N,12656.564003,E,0.001,195.63,171023,,,R,V*23
$GNVTG,195.63,T,,M,0.001,N,0.003,K,D*2C
$GNGSA,A,3,05,06,07,11,13,15,20,29,30,,,,0.80,0.43,0.68,1*08
$GNGSA,A,3,69,70,71,78,79,84,85,,,,,,0.80,0.43,0.68,2*0D
$GNGSA,A,3,03,07,08,13,15,26,,,,,,,0.80,0.43,0.68,3*0C
$GNGSA,A,3,02,03,04,06,07,08,09,10,13,16,23,25,0.80,0.43,0.68,4*02
$GNGSA,A,3,03,04,07,,,,,,,,,,0.80,0.43,0.68,5*04
"
agip2.gcm.collector.plugin.core.contents.persist.mongo.nmea.Nmea,652dd471e4b0775fde0a5d38,2023-10-17T00:25:21.602Z,2023-10-17T00:25:21.000Z,f95e0f0fd0ec45969b40da2a681114e1,"$GNGGA,002521.000,3555.846853,N,12656.564002,E,4,48,0.46,13.1,M,20.5,M,1.0,*67
$GNRMC,002521.000,A,3555.846853,N,12656.564002,E,0.002,195.63,171023,,,R,V*20
$GNVTG,195.63,T,,M,0.002,N,0.005,K,D*29
$GNGSA,A,3,05,06,07,11,13,15,20,29,30,,,,0.85,0.46,0.71,1*00
$GNGSA,A,3,69,70,71,78,79,84,85,,,,,,0.85,0.46,0.71,2*05
$GNGSA,A,3,03,07,08,13,15,26,,,,,,,0.85,0.46,0.71,3*04
$GNGSA,A,3,02,03,04,06,07,08,09,10,13,16,23,25,0.85,0.46,0.71,4*0A
$GNGSA,A,3,03,04,07,,,,,,,,,,0.85,0.46,0.71,5*0C
"
agip2.gcm.collector.plugin.core.contents.persist.mongo.nmea.Nmea,652dd472e4b0775fde0a5e79,2023-10-17T00:25:22.662Z,2023-10-17T00:25:22.000Z,f95e0f0fd0ec45969b40da2a681114e1,"$GNGGA,002522.000,3555.846853,N,12656.564003,E,4,48,0.45,13.1,M,20.5,M,1.0,*66
$GNRMC,002522.000,A,3555.846853,N,12656.564003,E,0.001,195.63,171023,,,R,V*21
$GNVTG,195.63,T,,M,0.001,N,0.002,K,D*2D
$GNGSA,A,3,05,06,07,11,13,15,20,29,30,,,,0.84,0.45,0.71,1*02
$GNGSA,A,3,69,70,71,78,79,84,85,,,,,,0.84,0.45,0.71,2*07
$GNGSA,A,3,03,07,08,13,15,26,,,,,,,0.84,0.45,0.71,3*06
$GNGSA,A,3,02,03,04,06,07,08,09,10,13,16,23,25,0.84,0.45,0.71,4*08
$GNGSA,A,3,03,04,07,,,,,,,,,,0.84,0.45,0.71,5*0E
"
agip2.gcm.collector.plugin.core.contents.persist.mongo.nmea.Nmea,652dd473e4b0775fde0a5f5b,2023-10-17T00:25:23.610Z,2023-10-17T00:25:23.000Z,f95e0f0fd0ec45969b40da2a681114e1,"$GNGGA,002523.000,3555.846853,N,12656.564003,E,4,48,0.45,13.1,M,20.5,M,1.0,*67
$GNRMC,002523.000,A,3555.846853,N,12656.564003,E,0.001,195.63,171023,,,R,V*20
$GNVTG,195.63,T,,M,0.001,N,0.001,K,D*2E
$GNGSA,A,3,05,06,07,11,13,15,20,29,30,,,,0.83,0.45,0.70,1*04
$GNGSA,A,3,69,70,71,78,79,84,85,,,,,,0.83,0.45,0.70,2*01
$GNGSA,A,3,03,07,08,13,15,26,,,,,,,0.83,0.45,0.70,3*00
$GNGSA,A,3,02,03,04,06,07,08,09,10,13,16,23,25,0.83,0.45,0.70,4*0E
$GNGSA,A,3,03,04,07,,,,,,,,,,0.83,0.45,0.70,5*08
"
agip2.gcm.collector.plugin.core.contents.persist.mongo.nmea.Nmea,652dd474e4b0775fde0a6075,2023-10-17T00:25:24.642Z,2023-10-17T00:25:24.000Z,f95e0f0fd0ec45969b40da2a681114e1,"$GNGGA,002524.000,3555.846853,N,12656.564003,E,4,48,0.43,13.1,M,20.5,M,1.0,*66
$GNRMC,002524.000,A,3555.846853,N,12656.564003,E,0.001,195.63,171023,,,R,V*27
$GNVTG,195.63,T,,M,0.001,N,0.003,K,D*2C
$GNGSA,A,3,05,06,07,11,13,15,20,29,30,,,,0.78,0.43,0.65,1*02
$GNGSA,A,3,69,70,71,78,79,84,85,,,,,,0.78,0.43,0.65,2*07
$GNGSA,A,3,03,07,08,13,15,26,,,,,,,0.78,0.43,0.65,3*06
$GNGSA,A,3,02,03,04,06,07,08,09,10,13,16,23,25,0.78,0.43,0.65,4*08
$GNGSA,A,3,03,04,07,,,,,,,,,,0.78,0.43,0.65,5*0E
"
agip2.gcm.collector.plugin.core.contents.persist.mongo.nmea.Nmea,652dd475e4b0775fde0a6159,2023-10-17T00:25:25.602Z,2023-10-17T00:25:25.000Z,f95e0f0fd0ec45969b40da2a681114e1,"$GNGGA,002525.000,3555.846853,N,12656.564003,E,4,48,0.41,13.1,M,20.5,M,1.0,*65
$GNRMC,002525.000,A,3555.846853,N,12656.564003,E,0.002,195.63,171023,,,R,V*25
$GNVTG,195.63,T,,M,0.002,N,0.003,K,D*2F
$GNGSA,A,3,05,06,07,11,13,15,20,29,30,,,,0.76,0.41,0.64,1*0F
$GNGSA,A,3,69,70,71,78,79,84,85,,,,,,0.76,0.41,0.64,2*0A
$GNGSA,A,3,03,07,08,13,15,26,,,,,,,0.76,0.41,0.64,3*0B
$GNGSA,A,3,02,03,04,06,07,08,09,10,13,16,23,25,0.76,0.41,0.64,4*05
$GNGSA,A,3,03,04,07,,,,,,,,,,0.76,0.41,0.64,5*03
"
agip2.gcm.collector.plugin.core.contents.persist.mongo.nmea.Nmea,652dd476e4b0775fde0a6284,2023-10-17T00:25:26.642Z,2023-10-17T00:25:26.000Z,f95e0f0fd0ec45969b40da2a681114e1,"$GNGGA,002526.000,3555.846853,N,12656.564002,E,4,48,0.44,13.1,M,20.5,M,1.0,*62
$GNRMC,002526.000,A,3555.846853,N,12656.564002,E,0.002,195.63,171023,,,R,V*27
$GNVTG,195.63,T,,M,0.002,N,0.004,K,D*28
$GNGSA,A,3,05,06,07,11,13,15,20,29,30,,,,0.82,0.44,0.69,1*0C
$GNGSA,A,3,69,70,71,78,79,84,85,,,,,,0.82,0.44,0.69,2*09
$GNGSA,A,3,03,07,08,13,15,26,,,,,,,0.82,0.44,0.69,3*08
$GNGSA,A,3,02,03,04,06,07,08,09,10,13,16,23,25,0.82,0.44,0.69,4*06
$GNGSA,A,3,03,04,07,,,,,,,,,,0.82,0.44,0.69,5*00
"
agip2.gcm.collector.plugin.core.contents.persist.mongo.nmea.Nmea,652dd477e4b0775fde0a6373,2023-10-17T00:25:27.630Z,2023-10-17T00:25:27.000Z,f95e0f0fd0ec45969b40da2a681114e1,"$GNGGA,002527.000,3555.846853,N,12656.564003,E,4,48,0.44,13.1,M,20.5,M,1.0,*62
$GNRMC,002527.000,A,3555.846853,N,12656.564003,E,0.002,195.63,171023,,,R,V*27
$GNVTG,195.63,T,,M,0.002,N,0.004,K,D*28
$GNGSA,A,3,05,06,07,11,13,15,20,29,30,,,,0.82,0.44,0.69,1*0C
$GNGSA,A,3,69,70,71,78,79,84,85,,,,,,0.82,0.44,0.69,2*09
$GNGSA,A,3,03,07,08,13,15,26,,,,,,,0.82,0.44,0.69,3*08
$GNGSA,A,3,02,03,04,06,07,08,09,10,13,16,23,25,0.82,0.44,0.69,4*06
$GNGSA,A,3,03,04,07,,,,,,,,,,0.82,0.44,0.69,5*00
"
agip2.gcm.collector.plugin.core.contents.persist.mongo.nmea.Nmea,652dd478e4b0775fde0a6486,2023-10-17T00:25:28.642Z,2023-10-17T00:25:28.000Z,f95e0f0fd0ec45969b40da2a681114e1,"$GNGGA,002528.000,3555.846854,N,12656.564003,E,4,48,0.44,13.1,M,20.5,M,1.0,*6A
$GNRMC,002528.000,A,3555.846854,N,12656.564003,E,0.003,195.63,171023,,,R,V*2E
$GNVTG,195.63,T,,M,0.003,N,0.006,K,D*2B
$GNGSA,A,3,05,06,07,11,13,15,20,29,30,,,,0.82,0.44,0.69,1*0C
$GNGSA,A,3,69,70,71,78,79,84,85,,,,,,0.82,0.44,0.69,2*09
$GNGSA,A,3,03,07,08,13,15,26,,,,,,,0.82,0.44,0.69,3*08
$GNGSA,A,3,02,03,04,06,07,08,09,10,13,16,23,25,0.82,0.44,0.69,4*06
$GNGSA,A,3,03,04,07,,,,,,,,,,0.82,0.44,0.69,5*00
"
agip2.gcm.collector.plugin.core.contents.persist.mongo.nmea.Nmea,652dd479e4b0775fde0a6578,2023-10-17T00:25:29.622Z,2023-10-17T00:25:29.000Z,f95e0f0fd0ec45969b40da2a681114e1,"$GNGGA,002529.000,3555.846854,N,12656.564003,E,4,48,0.45,13.1,M,20.5,M,1.0,*6A
$GNRMC,002529.000,A,3555.846854,N,12656.564003,E,0.002,195.63,171023,,,R,V*2E
$GNVTG,195.63,T,,M,0.002,N,0.003,K,D*2F
$GNGSA,A,3,05,06,07,11,13,15,20,29,30,,,,0.82,0.45,0.69,1*0D
$GNGSA,A,3,69,70,71,78,79,84,85,,,,,,0.82,0.45,0.69,2*08
$GNGSA,A,3,03,07,08,13,15,26,,,,,,,0.82,0.45,0.69,3*09
$GNGSA,A,3,02,03,04,06,07,08,09,10,13,16,23,25,0.82,0.45,0.69,4*07
$GNGSA,A,3,03,04,07,,,,,,,,,,0.82,0.45,0.69,5*01
"
agip2.gcm.collector.plugin.core.contents.persist.mongo.nmea.Nmea,652dd47ae4b0775fde0a6688,2023-10-17T00:25:30.642Z,2023-10-17T00:25:30.000Z,f95e0f0fd0ec45969b40da2a681114e1,"$GNGGA,002530.000,3555.846854,N,12656.564003,E,4,48,0.43,13.1,M,20.5,M,1.0,*64
$GNRMC,002530.000,A,3555.846854,N,12656.564003,E,0.002,195.63,171023,,,R,V*26
$GNVTG,195.63,T,,M,0.002,N,0.003,K,D*2F
$GNGSA,A,3,05,06,07,11,13,15,20,29,30,,,,0.81,0.43,0.69,1*08
$GNGSA,A,3,69,70,71,78,79,84,85,,,,,,0.81,0.43,0.69,2*0D
$GNGSA,A,3,03,07,08,13,15,26,,,,,,,0.81,0.43,0.69,3*0C
$GNGSA,A,3,02,03,04,06,07,08,09,10,13,16,23,25,0.81,0.43,0.69,4*02
$GNGSA,A,3,03,04,07,,,,,,,,,,0.81,0.43,0.69,5*04
"
agip2.gcm.collector.plugin.core.contents.persist.mongo.nmea.Nmea,652dd47be4b0775fde0a6771,2023-10-17T00:25:31.612Z,2023-10-17T00:25:31.000Z,f95e0f0fd0ec45969b40da2a681114e1,"$GNGGA,002531.000,3555.846854,N,12656.564002,E,4,48,0.40,13.1,M,20.5,M,1.0,*67
$GNRMC,002531.000,A,3555.846854,N,12656.564002,E,0.003,195.63,171023,,,R,V*27
$GNVTG,195.63,T,,M,0.003,N,0.006,K,D*2B
$GNGSA,A,3,05,06,07,11,13,15,20,29,30,,,,0.74,0.40,0.63,1*0B
$GNGSA,A,3,69,70,71,78,79,84,85,,,,,,0.74,0.40,0.63,2*0E
$GNGSA,A,3,03,07,08,13,15,26,,,,,,,0.74,0.40,0.63,3*0F
$GNGSA,A,3,02,03,04,06,07,08,09,10,13,16,23,25,0.74,0.40,0.63,4*01
$GNGSA,A,3,03,04,07,,,,,,,,,,0.74,0.40,0.63,5*07
"
agip2.gcm.collector.plugin.core.contents.persist.mongo.nmea.Nmea,652dd47ce4b0775fde0a68af,2023-10-17T00:25:32.672Z,2023-10-17T00:25:32.000Z,f95e0f0fd0ec45969b40da2a681114e1,"$GNGGA,002532.000,3555.846854,N,12656.564003,E,4,48,0.40,13.1,M,20.5,M,1.0,*65
$GNRMC,002532.000,A,3555.846854,N,12656.564003,E,0.002,195.63,171023,,,R,V*24
$GNVTG,195.63,T,,M,0.002,N,0.003,K,D*2F
$GNGSA,A,3,05,06,07,11,13,15,20,29,30,,,,0.74,0.40,0.63,1*0B
$GNGSA,A,3,69,70,71,78,79,84,85,,,,,,0.74,0.40,0.63,2*0E
$GNGSA,A,3,03,07,08,13,15,26,,,,,,,0.74,0.40,0.63,3*0F
$GNGSA,A,3,02,03,04,06,07,08,09,10,13,16,23,25,0.74,0.40,0.63,4*01
$GNGSA,A,3,03,04,07,,,,,,,,,,0.74,0.40,0.63,5*07
"
agip2.gcm.collector.plugin.core.contents.persist.mongo.nmea.Nmea,652dd47de4b0775fde0a6970,2023-10-17T00:25:33.592Z,2023-10-17T00:25:33.000Z,f95e0f0fd0ec45969b40da2a681114e1,"$GNGGA,002533.000,3555.846854,N,12656.564003,E,4,48,0.40,13.1,M,20.5,M,1.0,*64
$GNRMC,002533.000,A,3555.846854,N,12656.564003,E,0.000,195.63,171023,,,R,V*27
$GNVTG,195.63,T,,M,0.000,N,0.001,K,D*2F
$GNGSA,A,3,05,06,07,11,13,15,20,29,30,,,,0.74,0.40,0.63,1*0B
$GNGSA,A,3,69,70,71,78,79,84,85,,,,,,0.74,0.40,0.63,2*0E
$GNGSA,A,3,03,07,08,13,15,26,,,,,,,0.74,0.40,0.63,3*0F
$GNGSA,A,3,02,03,04,06,07,08,09,10,13,16,23,25,0.74,0.40,0.63,4*01
$GNGSA,A,3,03,04,07,,,,,,,,,,0.74,0.40,0.63,5*07
"
agip2.gcm.collector.plugin.core.contents.persist.mongo.nmea.Nmea,652dd47ee4b0775fde0a6abd,2023-10-17T00:25:34.692Z,2023-10-17T00:25:34.000Z,f95e0f0fd0ec45969b40da2a681114e1,"$GNGGA,002534.000,3555.846853,N,12656.564003,E,4,48,0.40,13.1,M,20.5,M,1.0,*64
$GNRMC,002534.000,A,3555.846853,N,12656.564003,E,0.001,195.63,171023,,,R,V*26
$GNVTG,195.63,T,,M,0.001,N,0.001,K,D*2E
$GNGSA,A,3,05,06,07,11,13,15,20,29,30,,,,0.74,0.40,0.63,1*0B
$GNGSA,A,3,69,70,71,78,79,84,85,,,,,,0.74,0.40,0.63,2*0E
$GNGSA,A,3,03,07,08,13,15,26,,,,,,,0.74,0.40,0.63,3*0F
$GNGSA,A,3,02,03,04,06,07,08,09,10,13,16,23,25,0.74,0.40,0.63,4*01
$GNGSA,A,3,03,04,07,,,,,,,,,,0.74,0.40,0.63,5*07
"
agip2.gcm.collector.plugin.core.contents.persist.mongo.nmea.Nmea,652dd47fe4b0775fde0a6b9a,2023-10-17T00:25:35.620Z,2023-10-17T00:25:35.000Z,f95e0f0fd0ec45969b40da2a681114e1,"$GNGGA,002535.000,3555.846854,N,12656.564002,E,4,48,0.41,13.1,M,20.5,M,1.0,*62
$GNRMC,002535.000,A,3555.846854,N,12656.564002,E,0.000,195.63,171023,,,R,V*20
$GNVTG,195.63,T,,M,0.000,N,0.001,K,D*2F
$GNGSA,A,3,05,06,07,11,13,15,20,29,30,,,,0.77,0.41,0.65,1*0F
$GNGSA,A,3,69,70,71,78,79,84,85,,,,,,0.77,0.41,0.65,2*0A
$GNGSA,A,3,03,07,08,13,15,26,,,,,,,0.77,0.41,0.65,3*0B
$GNGSA,A,3,02,03,04,06,07,08,09,10,13,16,23,25,0.77,0.41,0.65,4*05
$GNGSA,A,3,03,04,07,,,,,,,,,,0.77,0.41,0.65,5*03
"
agip2.gcm.collector.plugin.core.contents.persist.mongo.nmea.Nmea,652dd480e4b0775fde0a6cc0,2023-10-17T00:25:36.672Z,2023-10-17T00:25:36.000Z,f95e0f0fd0ec45969b40da2a681114e1,"$GNGGA,002536.000,3555.846854,N,12656.564003,E,4,48,0.45,13.1,M,20.5,M,1.0,*64
$GNRMC,002536.000,A,3555.846854,N,12656.564003,E,0.000,195.63,171023,,,R,V*22
$GNVTG,195.63,T,,M,0.000,N,0.001,K,D*2F
$GNGSA,A,3,05,06,07,11,13,15,20,29,30,,,,0.82,0.45,0.69,1*0D
$GNGSA,A,3,69,70,71,78,79,84,85,,,,,,0.82,0.45,0.69,2*08
$GNGSA,A,3,03,07,08,13,15,26,,,,,,,0.82,0.45,0.69,3*09
$GNGSA,A,3,02,03,04,06,07,08,09,10,13,16,23,25,0.82,0.45,0.69,4*07
$GNGSA,A,3,03,04,07,,,,,,,,,,0.82,0.45,0.69,5*01
"
agip2.gcm.collector.plugin.core.contents.persist.mongo.nmea.Nmea,652dd481e4b0775fde0a6d98,2023-10-17T00:25:37.612Z,2023-10-17T00:25:37.000Z,f95e0f0fd0ec45969b40da2a681114e1,"$GNGGA,002537.000,3555.846854,N,12656.564004,E,4,48,0.43,13.1,M,20.5,M,1.0,*64
$GNRMC,002537.000,A,3555.846854,N,12656.564004,E,0.001,195.63,171023,,,R,V*25
$GNVTG,195.63,T,,M,0.001,N,0.003,K,D*2C
$GNGSA,A,3,05,06,07,11,13,15,20,29,30,,,,0.80,0.43,0.67,1*07
$GNGSA,A,3,69,70,71,78,79,84,85,,,,,,0.80,0.43,0.67,2*02
$GNGSA,A,3,03,07,08,13,15,26,,,,,,,0.80,0.43,0.67,3*03
$GNGSA,A,3,02,03,04,06,07,08,09,10,13,16,23,25,0.80,0.43,0.67,4*0D
$GNGSA,A,3,03,04,07,,,,,,,,,,0.80,0.43,0.67,5*0B
"
agip2.gcm.collector.plugin.core.contents.persist.mongo.nmea.Nmea,652dd482e4b0775fde0a6ebd,2023-10-17T00:25:38.642Z,2023-10-17T00:25:38.000Z,f95e0f0fd0ec45969b40da2a681114e1,"$GNGGA,002538.000,3555.846854,N,12656.564003,E,4,48,0.40,13.1,M,20.5,M,1.0,*6F
$GNRMC,002538.000,A,3555.846854,N,12656.564003,E,0.001,195.63,171023,,,R,V*2D
$GNVTG,195.63,T,,M,0.001,N,0.003,K,D*2C
$GNGSA,A,3,05,06,07,11,13,15,20,29,30,,,,0.72,0.40,0.60,1*0E
$GNGSA,A,3,69,70,71,78,79,84,85,,,,,,0.72,0.40,0.60,2*0B
$GNGSA,A,3,03,07,08,13,15,26,,,,,,,0.72,0.40,0.60,3*0A
$GNGSA,A,3,02,03,04,06,07,08,09,10,13,16,23,25,0.72,0.40,0.60,4*04
$GNGSA,A,3,03,04,07,,,,,,,,,,0.72,0.40,0.60,5*02
"
agip2.gcm.collector.plugin.core.contents.persist.mongo.nmea.Nmea,652dd483e4b0775fde0a6fac,2023-10-17T00:25:39.622Z,2023-10-17T00:25:39.000Z,f95e0f0fd0ec45969b40da2a681114e1,"$GNGGA,002539.000,3555.846854,N,12656.564003,E,4,48,0.40,13.1,M,20.5,M,1.0,*6E
$GNRMC,002539.000,A,3555.846854,N,12656.564003,E,0.002,195.63,171023,,,R,V*2F
$GNVTG,195.63,T,,M,0.002,N,0.004,K,D*28
$GNGSA,A,3,05,06,07,11,13,15,20,29,30,,,,0.72,0.40,0.60,1*0E
$GNGSA,A,3,69,70,71,78,79,84,85,,,,,,0.72,0.40,0.60,2*0B
$GNGSA,A,3,03,07,08,13,15,26,,,,,,,0.72,0.40,0.60,3*0A
$GNGSA,A,3,02,03,04,06,07,08,09,10,13,16,23,25,0.72,0.40,0.60,4*04
$GNGSA,A,3,03,04,07,,,,,,,,,,0.72,0.40,0.60,5*02
"
agip2.gcm.collector.plugin.core.contents.persist.mongo.nmea.Nmea,652dd484e4b0775fde0a70d9,2023-10-17T00:25:40.672Z,2023-10-17T00:25:40.000Z,f95e0f0fd0ec45969b40da2a681114e1,"$GNGGA,002540.000,3555.846854,N,12656.564003,E,4,48,0.40,13.1,M,20.5,M,1.0,*60
$GNRMC,002540.000,A,3555.846854,N,12656.564003,E,0.002,195.63,171023,,,R,V*21
$GNVTG,195.63,T,,M,0.002,N,0.003,K,D*2F
$GNGSA,A,3,05,06,07,11,13,15,20,29,30,,,,0.72,0.40,0.60,1*0E
$GNGSA,A,3,69,70,71,78,79,84,85,,,,,,0.72,0.40,0.60,2*0B
$GNGSA,A,3,03,07,08,13,15,26,,,,,,,0.72,0.40,0.60,3*0A
$GNGSA,A,3,02,03,04,06,07,08,09,10,13,16,23,25,0.72,0.40,0.60,4*04
$GNGSA,A,3,03,04,07,,,,,,,,,,0.72,0.40,0.60,5*02
"
agip2.gcm.collector.plugin.core.contents.persist.mongo.nmea.Nmea,652dd485e4b0775fde0a71a5,2023-10-17T00:25:41.612Z,2023-10-17T00:25:41.000Z,f95e0f0fd0ec45969b40da2a681114e1,"$GNGGA,002541.000,3555.846853,N,12656.564003,E,4,48,0.40,13.1,M,20.5,M,1.0,*66
$GNRMC,002541.000,A,3555.846853,N,12656.564003,E,0.000,195.63,171023,,,R,V*25
$GNVTG,195.63,T,,M,0.000,N,0.001,K,D*2F
$GNGSA,A,3,05,06,07,11,13,15,20,29,30,,,,0.72,0.40,0.60,1*0E
$GNGSA,A,3,69,70,71,78,79,84,85,,,,,,0.72,0.40,0.60,2*0B
$GNGSA,A,3,03,07,08,13,15,26,,,,,,,0.72,0.40,0.60,3*0A
$GNGSA,A,3,02,03,04,06,07,08,09,10,13,16,23,25,0.72,0.40,0.60,4*04
$GNGSA,A,3,03,04,07,,,,,,,,,,0.72,0.40,0.60,5*02
"
agip2.gcm.collector.plugin.core.contents.persist.mongo.nmea.Nmea,652dd486e4b0775fde0a72c5,2023-10-17T00:25:42.632Z,2023-10-17T00:25:42.000Z,f95e0f0fd0ec45969b40da2a681114e1,"$GNGGA,002542.000,3555.846854,N,12656.564003,E,4,48,0.40,13.1,M,20.5,M,1.0,*62
$GNRMC,002542.000,A,3555.846854,N,12656.564003,E,0.001,195.63,171023,,,R,V*20
$GNVTG,195.63,T,,M,0.001,N,0.002,K,D*2D
$GNGSA,A,3,05,06,07,11,13,15,20,29,30,,,,0.72,0.40,0.60,1*0E
$GNGSA,A,3,69,70,71,78,79,84,85,,,,,,0.72,0.40,0.60,2*0B
$GNGSA,A,3,03,07,08,13,15,26,,,,,,,0.72,0.40,0.60,3*0A
$GNGSA,A,3,02,03,04,06,07,08,09,10,13,16,23,25,0.72,0.40,0.60,4*04
$GNGSA,A,3,03,04,07,,,,,,,,,,0.72,0.40,0.60,5*02
"
agip2.gcm.collector.plugin.core.contents.persist.mongo.nmea.Nmea,652dd487e4b0775fde0a73ab,2023-10-17T00:25:43.602Z,2023-10-17T00:25:43.000Z,f95e0f0fd0ec45969b40da2a681114e1,"$GNGGA,002543.000,3555.846854,N,12656.564004,E,4,48,0.43,13.1,M,20.5,M,1.0,*67
$GNRMC,002543.000,A,3555.846854,N,12656.564004,E,0.002,195.63,171023,,,R,V*25
$GNVTG,195.63,T,,M,0.002,N,0.004,K,D*28
$GNGSA,A,3,05,06,07,11,13,15,20,29,30,,,,0.83,0.43,0.71,1*03
$GNGSA,A,3,69,70,71,78,79,84,85,,,,,,0.83,0.43,0.71,2*06
$GNGSA,A,3,03,07,08,13,15,26,,,,,,,0.83,0.43,0.71,3*07
$GNGSA,A,3,02,03,04,06,07,08,09,10,13,16,23,25,0.83,0.43,0.71,4*09
$GNGSA,A,3,03,04,07,,,,,,,,,,0.83,0.43,0.71,5*0F
"
agip2.gcm.collector.plugin.core.contents.persist.mongo.nmea.Nmea,652dd488e4b0775fde0a74e6,2023-10-17T00:25:44.672Z,2023-10-17T00:25:44.000Z,f95e0f0fd0ec45969b40da2a681114e1,"$GNGGA,002544.000,3555.846854,N,12656.564004,E,4,48,0.42,13.1,M,20.5,M,1.0,*61
$GNRMC,002544.000,A,3555.846854,N,12656.564004,E,0.002,195.63,171023,,,R,V*22
$GNVTG,195.63,T,,M,0.002,N,0.003,K,D*2F
$GNGSA,A,3,05,06,07,11,13,15,20,29,30,,,,0.80,0.42,0.68,1*09
$GNGSA,A,3,69,70,71,78,79,84,85,,,,,,0.80,0.42,0.68,2*0C
$GNGSA,A,3,03,07,08,13,15,26,,,,,,,0.80,0.42,0.68,3*0D
$GNGSA,A,3,02,03,04,06,07,08,09,10,13,16,23,25,0.80,0.42,0.68,4*03
$GNGSA,A,3,03,04,07,,,,,,,,,,0.80,0.42,0.68,5*05
"
agip2.gcm.collector.plugin.core.contents.persist.mongo.nmea.Nmea,652dd489e4b0775fde0a75b9,2023-10-17T00:25:45.612Z,2023-10-17T00:25:45.000Z,f95e0f0fd0ec45969b40da2a681114e1,"$GNGGA,002545.000,3555.846854,N,12656.564004,E,4,48,0.44,13.1,M,20.5,M,1.0,*66
$GNRMC,002545.000,A,3555.846854,N,12656.564004,E,0.002,195.63,171023,,,R,V*23
$GNVTG,195.63,T,,M,0.002,N,0.004,K,D*28
$GNGSA,A,3,05,06,07,11,13,15,20,29,30,,,,0.88,0.44,0.77,1*09
$GNGSA,A,3,69,70,71,78,79,84,85,,,,,,0.88,0.44,0.77,2*0C
$GNGSA,A,3,03,07,08,13,15,26,,,,,,,0.88,0.44,0.77,3*0D
$GNGSA,A,3,02,03,04,06,07,08,09,10,13,16,23,25,0.88,0.44,0.77,4*03
$GNGSA,A,3,03,04,07,,,,,,,,,,0.88,0.44,0.77,5*05
"
agip2.gcm.collector.plugin.core.contents.persist.mongo.nmea.Nmea,652dd48ae4b0775fde0a76f3,2023-10-17T00:25:46.662Z,2023-10-17T00:25:46.000Z,f95e0f0fd0ec45969b40da2a681114e1,"$GNGGA,002546.000,3555.846854,N,12656.564004,E,4,49,0.43,13.1,M,20.5,M,1.0,*63
$GNRMC,002546.000,A,3555.846854,N,12656.564004,E,0.001,195.63,171023,,,R,V*23
$GNVTG,195.63,T,,M,0.001,N,0.002,K,D*2D
$GNGSA,A,3,05,06,07,11,13,15,20,29,30,,,,0.83,0.43,0.71,1*03
$GNGSA,A,3,69,70,71,78,79,84,85,,,,,,0.83,0.43,0.71,2*06
$GNGSA,A,3,03,07,08,13,15,26,,,,,,,0.83,0.43,0.71,3*07
$GNGSA,A,3,02,03,04,06,07,08,09,10,13,16,23,24,0.83,0.43,0.71,4*08
$GNGSA,A,3,03,04,07,,,,,,,,,,0.83,0.43,0.71,5*0F
"
agip2.gcm.collector.plugin.core.contents.persist.mongo.nmea.Nmea,652dd48be4b0775fde0a77bd,2023-10-17T00:25:47.602Z,2023-10-17T00:25:47.000Z,f95e0f0fd0ec45969b40da2a681114e1,"$GNGGA,002547.000,3555.846854,N,12656.564004,E,4,49,0.42,13.1,M,20.5,M,1.0,*63
$GNRMC,002547.000,A,3555.846854,N,12656.564004,E,0.001,195.63,171023,,,R,V*22
$GNVTG,195.63,T,,M,0.001,N,0.002,K,D*2D
$GNGSA,A,3,05,06,07,11,13,15,20,29,30,,,,0.73,0.42,0.60,1*0D
$GNGSA,A,3,69,70,71,78,79,84,85,,,,,,0.73,0.42,0.60,2*08
$GNGSA,A,3,03,07,08,13,15,26,,,,,,,0.73,0.42,0.60,3*09
$GNGSA,A,3,02,03,04,06,07,08,09,10,13,16,23,24,0.73,0.42,0.60,4*06
$GNGSA,A,3,03,04,07,,,,,,,,,,0.73,0.42,0.60,5*01
"
agip2.gcm.collector.plugin.core.contents.persist.mongo.nmea.Nmea,652dd48ce4b0775fde0a78ec,2023-10-17T00:25:48.643Z,2023-10-17T00:25:48.000Z,f95e0f0fd0ec45969b40da2a681114e1,"$GNGGA,002548.000,3555.846853,N,12656.564004,E,4,49,0.42,13.1,M,20.5,M,1.0,*6B
$GNRMC,002548.000,A,3555.846853,N,12656.564004,E,0.001,195.63,171023,,,R,V*2A
$GNVTG,195.63,T,,M,0.001,N,0.002,K,D*2D
$GNGSA,A,3,05,06,07,11,13,15,20,29,30,,,,0.74,0.42,0.60,1*0A
$GNGSA,A,3,69,70,71,78,79,84,85,,,,,,0.74,0.42,0.60,2*0F
$GNGSA,A,3,03,07,08,13,15,26,,,,,,,0.74,0.42,0.60,3*0E
$GNGSA,A,3,02,03,04,06,07,08,09,10,13,16,23,24,0.74,0.42,0.60,4*01
$GNGSA,A,3,03,04,07,,,,,,,,,,0.74,0.42,0.60,5*06
"
agip2.gcm.collector.plugin.core.contents.persist.mongo.nmea.Nmea,652dd48de4b0775fde0a79d7,2023-10-17T00:25:49.612Z,2023-10-17T00:25:49.000Z,f95e0f0fd0ec45969b40da2a681114e1,"$GNGGA,002549.000,3555.846853,N,12656.564004,E,4,49,0.41,13.1,M,20.5,M,1.0,*69
$GNRMC,002549.000,A,3555.846853,N,12656.564004,E,0.001,195.63,171023,,,R,V*2B
$GNVTG,195.63,T,,M,0.001,N,0.001,K,D*2E
$GNGSA,A,3,05,06,07,11,13,15,20,29,30,,,,0.72,0.41,0.60,1*0F
$GNGSA,A,3,69,70,71,78,79,84,85,,,,,,0.72,0.41,0.60,2*0A
$GNGSA,A,3,03,07,08,13,15,26,,,,,,,0.72,0.41,0.60,3*0B
$GNGSA,A,3,02,03,04,06,07,08,09,10,13,16,23,24,0.72,0.41,0.60,4*04
$GNGSA,A,3,03,04,07,,,,,,,,,,0.72,0.41,0.60,5*03
"
agip2.gcm.collector.plugin.core.contents.persist.mongo.nmea.Nmea,652dd48ee4b0775fde0a7b01,2023-10-17T00:25:50.662Z,2023-10-17T00:25:50.000Z,f95e0f0fd0ec45969b40da2a681114e1,"$GNGGA,002550.000,3555.846854,N,12656.564004,E,4,49,0.42,13.1,M,20.5,M,1.0,*65
$GNRMC,002550.000,A,3555.846854,N,12656.564004,E,0.001,195.63,171023,,,R,V*24
$GNVTG,195.63,T,,M,0.001,N,0.002,K,D*2D
$GNGSA,A,3,05,06,07,11,13,15,20,29,30,,,,0.77,0.42,0.65,1*0C
$GNGSA,A,3,69,70,71,78,79,84,85,,,,,,0.77,0.42,0.65,2*09
$GNGSA,A,3,03,07,08,13,15,26,,,,,,,0.77,0.42,0.65,3*08
$GNGSA,A,3,02,03,04,06,07,08,09,10,13,16,23,24,0.77,0.42,0.65,4*07
$GNGSA,A,3,03,04,07,,,,,,,,,,0.77,0.42,0.65,5*00
"
agip2.gcm.collector.plugin.core.contents.persist.mongo.nmea.Nmea,652dd48fe4b0775fde0a7bcd,2023-10-17T00:25:51.602Z,2023-10-17T00:25:51.000Z,f95e0f0fd0ec45969b40da2a681114e1,"$GNGGA,002551.000,3555.846854,N,12656.564004,E,4,49,0.42,13.1,M,20.5,M,1.0,*64
$GNRMC,002551.000,A,3555.846854,N,12656.564004,E,0.001,195.63,171023,,,R,V*25
$GNVTG,195.63,T,,M,0.001,N,0.001,K,D*2E
$GNGSA,A,3,05,06,07,11,13,15,20,29,30,,,,0.78,0.42,0.65,1*03
$GNGSA,A,3,69,70,71,78,79,84,85,,,,,,0.78,0.42,0.65,2*06
$GNGSA,A,3,03,07,08,13,15,26,,,,,,,0.78,0.42,0.65,3*07
$GNGSA,A,3,02,03,04,06,07,08,09,10,13,16,23,24,0.78,0.42,0.65,4*08
$GNGSA,A,3,03,04,07,,,,,,,,,,0.78,0.42,0.65,5*0F
"
agip2.gcm.collector.plugin.core.contents.persist.mongo.nmea.Nmea,652dd490e4b0775fde0a7d02,2023-10-17T00:25:52.642Z,2023-10-17T00:25:52.000Z,f95e0f0fd0ec45969b40da2a681114e1,"$GNGGA,002552.000,3555.846855,N,12656.564004,E,4,49,0.42,13.1,M,20.5,M,1.0,*66
$GNRMC,002552.000,A,3555.846855,N,12656.564004,E,0.001,195.63,171023,,,R,V*27
$GNVTG,195.63,T,,M,0.001,N,0.002,K,D*2D
$GNGSA,A,3,05,06,07,11,13,15,20,29,30,,,,0.74,0.42,0.61,1*0B
$GNGSA,A,3,69,70,71,78,79,84,85,,,,,,0.74,0.42,0.61,2*0E
$GNGSA,A,3,03,07,08,13,15,26,,,,,,,0.74,0.42,0.61,3*0F
$GNGSA,A,3,02,03,04,06,07,08,09,10,13,16,23,24,0.74,0.42,0.61,4*00
$GNGSA,A,3,03,04,07,,,,,,,,,,0.74,0.42,0.61,5*07
"
agip2.gcm.collector.plugin.core.contents.persist.mongo.nmea.Nmea,652dd491e4b0775fde0a7dea,2023-10-17T00:25:53.602Z,2023-10-17T00:25:53.000Z,f95e0f0fd0ec45969b40da2a681114e1,"$GNGGA,002553.000,3555.846853,N,12656.564003,E,4,49,0.42,13.1,M,20.5,M,1.0,*66
$GNRMC,002553.000,A,3555.846853,N,12656.564003,E,0.001,195.63,171023,,,R,V*27
$GNVTG,195.63,T,,M,0.001,N,0.002,K,D*2D
$GNGSA,A,3,05,06,07,11,13,15,20,29,30,,,,0.78,0.42,0.65,1*03
$GNGSA,A,3,69,70,71,78,79,84,85,,,,,,0.78,0.42,0.65,2*06
$GNGSA,A,3,03,07,08,13,15,26,,,,,,,0.78,0.42,0.65,3*07
$GNGSA,A,3,02,03,04,06,07,08,09,10,13,16,23,24,0.78,0.42,0.65,4*08
$GNGSA,A,3,03,04,07,,,,,,,,,,0.78,0.42,0.65,5*0F
"
agip2.gcm.collector.plugin.core.contents.persist.mongo.nmea.Nmea,652dd492e4b0775fde0a7f14,2023-10-17T00:25:54.642Z,2023-10-17T00:25:54.000Z,f95e0f0fd0ec45969b40da2a681114e1,"$GNGGA,002554.000,3555.846854,N,12656.564004,E,4,49,0.42,13.1,M,20.5,M,1.0,*61
$GNRMC,002554.000,A,3555.846854,N,12656.564004,E,0.001,195.63,171023,,,R,V*20
$GNVTG,195.63,T,,M,0.001,N,0.002,K,D*2D
$GNGSA,A,3,05,06,07,11,13,15,20,29,30,,,,0.78,0.42,0.65,1*03
$GNGSA,A,3,69,70,71,78,79,84,85,,,,,,0.78,0.42,0.65,2*06
$GNGSA,A,3,03,07,08,13,15,26,,,,,,,0.78,0.42,0.65,3*07
$GNGSA,A,3,02,03,04,06,07,08,09,10,13,16,23,24,0.78,0.42,0.65,4*08
$GNGSA,A,3,03,04,07,,,,,,,,,,0.78,0.42,0.65,5*0F
"
agip2.gcm.collector.plugin.core.contents.persist.mongo.nmea.Nmea,652dd493e4b0775fde0a7ff4,2023-10-17T00:25:55.602Z,2023-10-17T00:25:55.000Z,f95e0f0fd0ec45969b40da2a681114e1,"$GNGGA,002555.000,3555.846854,N,12656.564003,E,4,49,0.42,13.1,M,20.5,M,1.0,*67
$GNRMC,002555.000,A,3555.846854,N,12656.564003,E,0.002,195.63,171023,,,R,V*25
$GNVTG,195.63,T,,M,0.002,N,0.004,K,D*28
$GNGSA,A,3,05,06,07,11,13,15,20,29,30,,,,0.81,0.42,0.69,1*09
$GNGSA,A,3,69,70,71,78,79,84,85,,,,,,0.81,0.42,0.69,2*0C
$GNGSA,A,3,03,07,08,13,15,26,,,,,,,0.81,0.42,0.69,3*0D
$GNGSA,A,3,02,03,04,06,07,08,09,10,13,16,23,24,0.81,0.42,0.69,4*02
$GNGSA,A,3,03,04,07,,,,,,,,,,0.81,0.42,0.69,5*05
"
agip2.gcm.collector.plugin.core.contents.persist.mongo.nmea.Nmea,652dd494e4b0775fde0a8114,2023-10-17T00:25:56.632Z,2023-10-17T00:25:56.000Z,f95e0f0fd0ec45969b40da2a681114e1,"$GNGGA,002556.000,3555.846853,N,12656.564004,E,4,49,0.42,13.1,M,20.5,M,1.0,*64
$GNRMC,002556.000,A,3555.846853,N,12656.564004,E,0.001,195.63,171023,,,R,V*25
$GNVTG,195.63,T,,M,0.001,N,0.001,K,D*2E
$GNGSA,A,3,05,06,07,11,13,15,20,29,30,,,,0.81,0.42,0.69,1*09
$GNGSA,A,3,69,70,71,78,79,84,85,,,,,,0.81,0.42,0.69,2*0C
$GNGSA,A,3,03,07,08,13,15,26,,,,,,,0.81,0.42,0.69,3*0D
$GNGSA,A,3,02,03,04,06,07,08,09,10,13,16,23,24,0.81,0.42,0.69,4*02
$GNGSA,A,3,03,04,07,,,,,,,,,,0.81,0.42,0.69,5*05
"
agip2.gcm.collector.plugin.core.contents.persist.mongo.nmea.Nmea,652dd495e4b0775fde0a8211,2023-10-17T00:25:57.627Z,2023-10-17T00:25:57.000Z,f95e0f0fd0ec45969b40da2a681114e1,"$GNGGA,002557.000,3555.846853,N,12656.564004,E,4,49,0.43,13.1,M,20.5,M,1.0,*64
$GNRMC,002557.000,A,3555.846853,N,12656.564004,E,0.001,195.63,171023,,,R,V*24
$GNVTG,195.63,T,,M,0.001,N,0.002,K,D*2D
$GNGSA,A,3,05,06,07,11,13,15,20,29,30,,,,0.81,0.43,0.69,1*08
$GNGSA,A,3,69,70,71,78,79,84,85,,,,,,0.81,0.43,0.69,2*0D
$GNGSA,A,3,03,07,08,13,15,26,,,,,,,0.81,0.43,0.69,3*0C
$GNGSA,A,3,02,03,04,06,07,08,09,10,13,16,23,24,0.81,0.43,0.69,4*03
$GNGSA,A,3,03,04,07,,,,,,,,,,0.81,0.43,0.69,5*04
"
agip2.gcm.collector.plugin.core.contents.persist.mongo.nmea.Nmea,652dd496e4b0775fde0a8345,2023-10-17T00:25:58.662Z,2023-10-17T00:25:58.000Z,f95e0f0fd0ec45969b40da2a681114e1,"$GNGGA,002558.000,3555.846853,N,12656.564004,E,4,49,0.41,13.1,M,20.5,M,1.0,*69
$GNRMC,002558.000,A,3555.846853,N,12656.564004,E,0.002,195.63,171023,,,R,V*28
$GNVTG,195.63,T,,M,0.002,N,0.004,K,D*28
$GNGSA,A,3,05,06,07,11,13,15,20,29,30,,,,0.73,0.41,0.61,1*0F
$GNGSA,A,3,69,70,71,78,79,84,85,,,,,,0.73,0.41,0.61,2*0A
$GNGSA,A,3,03,07,08,13,15,26,,,,,,,0.73,0.41,0.61,3*0B
$GNGSA,A,3,02,03,04,06,07,08,09,10,13,16,23,24,0.73,0.41,0.61,4*04
$GNGSA,A,3,03,04,07,,,,,,,,,,0.73,0.41,0.61,5*03
"
agip2.gcm.collector.plugin.core.contents.persist.mongo.nmea.Nmea,652dd497e4b0775fde0a840f,2023-10-17T00:25:59.602Z,2023-10-17T00:25:59.000Z,f95e0f0fd0ec45969b40da2a681114e1,"$GNGGA,002559.000,3555.846853,N,12656.564004,E,4,49,0.42,13.1,M,20.5,M,1.0,*6B
$GNRMC,002559.000,A,3555.846853,N,12656.564004,E,0.000,195.63,171023,,,R,V*2B
$GNVTG,195.63,T,,M,0.000,N,0.001,K,D*2F
$GNGSA,A,3,05,06,07,11,13,15,20,29,30,,,,0.81,0.42,0.69,1*09
$GNGSA,A,3,69,70,71,78,79,84,85,,,,,,0.81,0.42,0.69,2*0C
$GNGSA,A,3,03,07,08,13,15,26,,,,,,,0.81,0.42,0.69,3*0D
$GNGSA,A,3,02,03,04,06,07,08,09,10,13,16,23,24,0.81,0.42,0.69,4*02
$GNGSA,A,3,03,04,07,,,,,,,,,,0.81,0.42,0.69,5*05
"
agip2.gcm.collector.plugin.core.contents.persist.mongo.nmea.Nmea,652dd498e4b0775fde0a8549,2023-10-17T00:26:00.672Z,2023-10-17T00:26:00.000Z,f95e0f0fd0ec45969b40da2a681114e1,"$GNGGA,002600.000,3555.846853,N,12656.564004,E,4,49,0.41,13.1,M,20.5,M,1.0,*67
$GNRMC,002600.000,A,3555.846853,N,12656.564004,E,0.001,195.63,171023,,,R,V*25
$GNVTG,195.63,T,,M,0.001,N,0.002,K,D*2D
$GNGSA,A,3,05,06,07,11,13,15,20,29,30,,,,0.76,0.41,0.64,1*0F
$GNGSA,A,3,69,70,71,78,79,84,85,,,,,,0.76,0.41,0.64,2*0A
$GNGSA,A,3,03,07,08,13,15,26,,,,,,,0.76,0.41,0.64,3*0B
$GNGSA,A,3,02,03,04,06,07,08,09,10,13,16,23,24,0.76,0.41,0.64,4*04
$GNGSA,A,3,03,04,07,,,,,,,,,,0.76,0.41,0.64,5*03
"
agip2.gcm.collector.plugin.core.contents.persist.mongo.nmea.Nmea,652dd499e4b0775fde0a8623,2023-10-17T00:26:01.622Z,2023-10-17T00:26:01.000Z,f95e0f0fd0ec45969b40da2a681114e1,"$GNGGA,002601.000,3555.846853,N,12656.564004,E,4,49,0.41,13.1,M,20.5,M,1.0,*66
$GNRMC,002601.000,A,3555.846853,N,12656.564004,E,0.002,195.63,171023,,,R,V*27
$GNVTG,195.63,T,,M,0.002,N,0.004,K,D*28
$GNGSA,A,3,05,06,07,11,13,15,20,29,30,,,,0.74,0.41,0.62,1*0B
$GNGSA,A,3,69,70,71,78,79,84,85,,,,,,0.74,0.41,0.62,2*0E
$GNGSA,A,3,03,07,08,13,15,26,,,,,,,0.74,0.41,0.62,3*0F
$GNGSA,A,3,02,03,04,06,07,08,09,10,13,16,23,24,0.74,0.41,0.62,4*00
$GNGSA,A,3,03,04,07,,,,,,,,,,0.74,0.41,0.62,5*07
"
agip2.gcm.collector.plugin.core.contents.persist.mongo.nmea.Nmea,652dd49ae4b0775fde0a874b,2023-10-17T00:26:02.642Z,2023-10-17T00:26:02.000Z,f95e0f0fd0ec45969b40da2a681114e1,"$GNGGA,002602.000,3555.846853,N,12656.564003,E,4,49,0.41,13.1,M,20.5,M,1.0,*62
$GNRMC,002602.000,A,3555.846853,N,12656.564003,E,0.001,195.63,171023,,,R,V*20
$GNVTG,195.63,T,,M,0.001,N,0.001,K,D*2E
$GNGSA,A,3,05,06,07,11,13,15,20,29,30,,,,0.74,0.41,0.62,1*0B
$GNGSA,A,3,69,70,71,78,79,84,85,,,,,,0.74,0.41,0.62,2*0E
$GNGSA,A,3,03,07,08,13,15,26,,,,,,,0.74,0.41,0.62,3*0F
$GNGSA,A,3,02,03,04,06,07,08,09,10,13,16,23,24,0.74,0.41,0.62,4*00
$GNGSA,A,3,03,04,07,,,,,,,,,,0.74,0.41,0.62,5*07
"
agip2.gcm.collector.plugin.core.contents.persist.mongo.nmea.Nmea,652dd49be4b0775fde0a8828,2023-10-17T00:26:03.612Z,2023-10-17T00:26:03.000Z,f95e0f0fd0ec45969b40da2a681114e1,"$GNGGA,002603.000,3555.846853,N,12656.564003,E,4,49,0.41,13.1,M,20.5,M,1.0,*63
$GNRMC,002603.000,A,3555.846853,N,12656.564003,E,0.001,195.63,171023,,,R,V*21
$GNVTG,195.63,T,,M,0.001,N,0.002,K,D*2D
$GNGSA,A,3,05,06,07,11,13,15,20,29,30,,,,0.74,0.41,0.62,1*0B
$GNGSA,A,3,69,70,71,78,79,84,85,,,,,,0.74,0.41,0.62,2*0E
$GNGSA,A,3,03,07,08,13,15,26,,,,,,,0.74,0.41,0.62,3*0F
$GNGSA,A,3,02,03,04,06,07,08,09,10,13,16,23,24,0.74,0.41,0.62,4*00
$GNGSA,A,3,03,04,07,,,,,,,,,,0.74,0.41,0.62,5*07
"
agip2.gcm.collector.plugin.core.contents.persist.mongo.nmea.Nmea,652dd49ce4b0775fde0a8966,2023-10-17T00:26:04.672Z,2023-10-17T00:26:04.000Z,f95e0f0fd0ec45969b40da2a681114e1,"$GNGGA,002604.000,3555.846854,N,12656.564004,E,4,49,0.41,13.1,M,20.5,M,1.0,*64
$GNRMC,002604.000,A,3555.846854,N,12656.564004,E,0.002,195.63,171023,,,R,V*25
$GNVTG,195.63,T,,M,0.002,N,0.003,K,D*2F
$GNGSA,A,3,05,06,07,11,13,15,20,29,30,,,,0.74,0.41,0.62,1*0B
$GNGSA,A,3,69,70,71,78,79,84,85,,,,,,0.74,0.41,0.62,2*0E
$GNGSA,A,3,03,07,08,13,15,26,,,,,,,0.74,0.41,0.62,3*0F
$GNGSA,A,3,02,03,04,06,07,08,09,10,13,16,23,24,0.74,0.41,0.62,4*00
$GNGSA,A,3,03,04,07,,,,,,,,,,0.74,0.41,0.62,5*07
"
agip2.gcm.collector.plugin.core.contents.persist.mongo.nmea.Nmea,652dd49de4b0775fde0a8a2b,2023-10-17T00:26:05.602Z,2023-10-17T00:26:05.000Z,f95e0f0fd0ec45969b40da2a681114e1,"$GNGGA,002605.000,3555.846854,N,12656.564003,E,4,49,0.41,13.1,M,20.5,M,1.0,*62
$GNRMC,002605.000,A,3555.846854,N,12656.564003,E,0.003,195.63,171023,,,R,V*22
$GNVTG,195.63,T,,M,0.003,N,0.005,K,D*28
$GNGSA,A,3,05,06,07,11,13,15,20,29,30,,,,0.74,0.41,0.62,1*0B
$GNGSA,A,3,69,70,71,78,79,84,85,,,,,,0.74,0.41,0.62,2*0E
$GNGSA,A,3,03,07,08,13,15,26,,,,,,,0.74,0.41,0.62,3*0F
$GNGSA,A,3,02,03,04,06,07,08,09,10,13,16,23,24,0.74,0.41,0.62,4*00
$GNGSA,A,3,03,04,07,,,,,,,,,,0.74,0.41,0.62,5*07
"
agip2.gcm.collector.plugin.core.contents.persist.mongo.nmea.Nmea,652dd49ee4b0775fde0a8b69,2023-10-17T00:26:06.660Z,2023-10-17T00:26:06.000Z,f95e0f0fd0ec45969b40da2a681114e1,"$GNGGA,002606.000,3555.846854,N,12656.564003,E,4,49,0.41,13.1,M,20.5,M,1.0,*61
$GNRMC,002606.000,A,3555.846854,N,12656.564003,E,0.001,195.63,171023,,,R,V*23
$GNVTG,195.63,T,,M,0.001,N,0.002,K,D*2D
$GNGSA,A,3,05,06,07,11,13,15,20,29,30,,,,0.74,0.41,0.62,1*0B
$GNGSA,A,3,69,70,71,78,79,84,85,,,,,,0.74,0.41,0.62,2*0E
$GNGSA,A,3,03,07,08,13,15,26,,,,,,,0.74,0.41,0.62,3*0F
$GNGSA,A,3,02,03,04,06,07,08,09,10,13,16,23,24,0.74,0.41,0.62,4*00
$GNGSA,A,3,03,04,07,,,,,,,,,,0.74,0.41,0.62,5*07
"
agip2.gcm.collector.plugin.core.contents.persist.mongo.nmea.Nmea,652dd49fe4b0775fde0a8c46,2023-10-17T00:26:07.612Z,2023-10-17T00:26:07.000Z,f95e0f0fd0ec45969b40da2a681114e1,"$GNGGA,002607.000,3555.846853,N,12656.564003,E,4,49,0.41,13.1,M,20.5,M,1.0,*67
$GNRMC,002607.000,A,3555.846853,N,12656.564003,E,0.002,195.63,171023,,,R,V*26
$GNVTG,195.63,T,,M,0.002,N,0.003,K,D*2F
$GNGSA,A,3,05,06,07,11,13,15,20,29,30,,,,0.74,0.41,0.62,1*0B
$GNGSA,A,3,69,70,71,78,79,84,85,,,,,,0.74,0.41,0.62,2*0E
$GNGSA,A,3,03,07,08,13,15,26,,,,,,,0.74,0.41,0.62,3*0F
$GNGSA,A,3,02,03,04,06,07,08,09,10,13,16,23,24,0.74,0.41,0.62,4*00
$GNGSA,A,3,03,04,07,,,,,,,,,,0.74,0.41,0.62,5*07
"
agip2.gcm.collector.plugin.core.contents.persist.mongo.nmea.Nmea,652dd4a0e4b0775fde0a8d7a,2023-10-17T00:26:08.670Z,2023-10-17T00:26:08.000Z,f95e0f0fd0ec45969b40da2a681114e1,"$GNGGA,002608.000,3555.846854,N,12656.564003,E,4,49,0.41,13.1,M,20.5,M,1.0,*6F
$GNRMC,002608.000,A,3555.846854,N,12656.564003,E,0.001,195.63,171023,,,R,V*2D
$GNVTG,195.63,T,,M,0.001,N,0.001,K,D*2E
$GNGSA,A,3,05,06,07,11,13,15,20,29,30,,,,0.74,0.41,0.62,1*0B
$GNGSA,A,3,69,70,71,78,79,84,85,,,,,,0.74,0.41,0.62,2*0E
$GNGSA,A,3,03,07,08,13,15,26,,,,,,,0.74,0.41,0.62,3*0F
$GNGSA,A,3,02,03,04,06,07,08,09,10,13,16,23,24,0.74,0.41,0.62,4*00
$GNGSA,A,3,03,04,07,,,,,,,,,,0.74,0.41,0.62,5*07
"
agip2.gcm.collector.plugin.core.contents.persist.mongo.nmea.Nmea,652dd4a1e4b0775fde0a8e51,2023-10-17T00:26:09.612Z,2023-10-17T00:26:09.000Z,f95e0f0fd0ec45969b40da2a681114e1,"$GNGGA,002609.000,3555.846853,N,12656.564004,E,4,49,0.41,13.1,M,20.5,M,1.0,*6E
$GNRMC,002609.000,A,3555.846853,N,12656.564004,E,0.001,195.63,171023,,,R,V*2C
$GNVTG,195.63,T,,M,0.001,N,0.002,K,D*2D
$GNGSA,A,3,05,06,07,11,13,15,20,29,30,,,,0.74,0.41,0.62,1*0B
$GNGSA,A,3,69,70,71,78,79,84,85,,,,,,0.74,0.41,0.62,2*0E
$GNGSA,A,3,03,07,08,13,15,26,,,,,,,0.74,0.41,0.62,3*0F
$GNGSA,A,3,02,03,04,06,07,08,09,10,13,16,23,24,0.74,0.41,0.62,4*00
$GNGSA,A,3,03,04,07,,,,,,,,,,0.74,0.41,0.62,5*07
"
agip2.gcm.collector.plugin.core.contents.persist.mongo.nmea.Nmea,652dd4a2e4b0775fde0a8f68,2023-10-17T00:26:10.632Z,2023-10-17T00:26:10.000Z,f95e0f0fd0ec45969b40da2a681114e1,"$GNGGA,002610.000,3555.846853,N,12656.564004,E,4,49,0.41,13.1,M,20.5,M,1.0,*66
$GNRMC,002610.000,A,3555.846853,N,12656.564004,E,0.001,195.63,171023,,,R,V*24
$GNVTG,195.63,T,,M,0.001,N,0.002,K,D*2D
$GNGSA,A,3,05,06,07,11,13,15,20,29,30,,,,0.72,0.41,0.58,1*04
$GNGSA,A,3,69,70,71,78,79,84,85,,,,,,0.72,0.41,0.58,2*01
$GNGSA,A,3,03,07,08,13,15,26,,,,,,,0.72,0.41,0.58,3*00
$GNGSA,A,3,02,03,04,06,07,08,09,10,13,16,23,24,0.72,0.41,0.58,4*0F
$GNGSA,A,3,03,04,07,,,,,,,,,,0.72,0.41,0.58,5*08
"
agip2.gcm.collector.plugin.core.contents.persist.mongo.nmea.Nmea,652dd4a3e4b0775fde0a9057,2023-10-17T00:26:11.612Z,2023-10-17T00:26:11.000Z,f95e0f0fd0ec45969b40da2a681114e1,"$GNGGA,002611.000,3555.846853,N,12656.564003,E,4,49,0.41,13.1,M,20.5,M,1.0,*60
$GNRMC,002611.000,A,3555.846853,N,12656.564003,E,0.002,195.63,171023,,,R,V*21
$GNVTG,195.63,T,,M,0.002,N,0.003,K,D*2F
$GNGSA,A,3,05,06,07,11,13,15,20,29,30,,,,0.73,0.41,0.61,1*0F
$GNGSA,A,3,69,70,71,78,79,84,85,,,,,,0.73,0.41,0.61,2*0A
$GNGSA,A,3,03,07,08,13,15,26,,,,,,,0.73,0.41,0.61,3*0B
$GNGSA,A,3,02,03,04,06,07,08,09,10,13,16,23,24,0.73,0.41,0.61,4*04
$GNGSA,A,3,03,04,07,,,,,,,,,,0.73,0.41,0.61,5*03
"
agip2.gcm.collector.plugin.core.contents.persist.mongo.nmea.Nmea,652dd4a4e4b0775fde0a918a,2023-10-17T00:26:12.642Z,2023-10-17T00:26:12.000Z,f95e0f0fd0ec45969b40da2a681114e1,"$GNGGA,002612.000,3555.846853,N,12656.564003,E,4,49,0.41,13.1,M,20.5,M,1.0,*63
$GNRMC,002612.000,A,3555.846853,N,12656.564003,E,0.001,195.63,171023,,,R,V*21
$GNVTG,195.63,T,,M,0.001,N,0.002,K,D*2D
$GNGSA,A,3,05,06,07,11,13,15,20,29,30,,,,0.74,0.41,0.62,1*0B
$GNGSA,A,3,69,70,71,78,79,84,85,,,,,,0.74,0.41,0.62,2*0E
$GNGSA,A,3,03,07,08,13,15,26,,,,,,,0.74,0.41,0.62,3*0F
$GNGSA,A,3,02,03,04,06,07,08,09,10,13,16,23,24,0.74,0.41,0.62,4*00
$GNGSA,A,3,03,04,07,,,,,,,,,,0.74,0.41,0.62,5*07
"
agip2.gcm.collector.plugin.core.contents.persist.mongo.nmea.Nmea,652dd4a5e4b0775fde0a9265,2023-10-17T00:26:13.602Z,2023-10-17T00:26:13.000Z,f95e0f0fd0ec45969b40da2a681114e1,"$GNGGA,002613.000,3555.846853,N,12656.564002,E,4,49,0.41,13.1,M,20.5,M,1.0,*63
$GNRMC,002613.000,A,3555.846853,N,12656.564002,E,0.001,195.63,171023,,,R,V*21
$GNVTG,195.63,T,,M,0.001,N,0.003,K,D*2C
$GNGSA,A,3,05,06,07,11,13,15,20,29,30,,,,0.73,0.41,0.61,1*0F
$GNGSA,A,3,69,70,71,78,79,84,85,,,,,,0.73,0.41,0.61,2*0A
$GNGSA,A,3,03,07,08,13,15,26,,,,,,,0.73,0.41,0.61,3*0B
$GNGSA,A,3,02,03,04,06,07,08,09,10,13,16,23,24,0.73,0.41,0.61,4*04
$GNGSA,A,3,03,04,07,,,,,,,,,,0.73,0.41,0.61,5*03
"
agip2.gcm.collector.plugin.core.contents.persist.mongo.nmea.Nmea,652dd4a6e4b0775fde0a93b5,2023-10-17T00:26:14.662Z,2023-10-17T00:26:14.000Z,f95e0f0fd0ec45969b40da2a681114e1,"$GNGGA,002614.000,3555.846853,N,12656.564001,E,4,49,0.41,13.1,M,20.5,M,1.0,*67
$GNRMC,002614.000,A,3555.846853,N,12656.564001,E,0.002,195.63,171023,,,R,V*26
$GNVTG,195.63,T,,M,0.002,N,0.003,K,D*2F
$GNGSA,A,3,05,06,07,11,13,15,20,29,30,,,,0.74,0.41,0.62,1*0B
$GNGSA,A,3,69,70,71,78,79,84,85,,,,,,0.74,0.41,0.62,2*0E
$GNGSA,A,3,03,07,08,13,15,26,,,,,,,0.74,0.41,0.62,3*0F
$GNGSA,A,3,02,03,04,06,07,08,09,10,13,16,23,24,0.74,0.41,0.62,4*00
$GNGSA,A,3,03,04,07,,,,,,,,,,0.74,0.41,0.62,5*07
"
agip2.gcm.collector.plugin.core.contents.persist.mongo.nmea.Nmea,652dd4a7e4b0775fde0a9485,2023-10-17T00:26:15.612Z,2023-10-17T00:26:15.000Z,f95e0f0fd0ec45969b40da2a681114e1,"$GNGGA,002615.000,3555.846853,N,12656.564002,E,4,48,0.47,13.1,M,20.5,M,1.0,*62
$GNRMC,002615.000,A,3555.846853,N,12656.564002,E,0.001,195.63,171023,,,R,V*27
$GNVTG,195.63,T,,M,0.001,N,0.003,K,D*2C
$GNGSA,A,3,05,06,07,11,13,15,20,29,30,,,,0.86,0.47,0.72,1*01
$GNGSA,A,3,69,70,71,78,79,84,85,,,,,,0.86,0.47,0.72,2*04
$GNGSA,A,3,03,07,08,13,15,26,,,,,,,0.86,0.47,0.72,3*05
$GNGSA,A,3,02,03,04,06,07,08,09,10,13,16,23,25,0.86,0.47,0.72,4*0B
$GNGSA,A,3,03,04,07,,,,,,,,,,0.86,0.47,0.72,5*0D
"
agip2.gcm.collector.plugin.core.contents.persist.mongo.nmea.Nmea,652dd4a8e4b0775fde0a95c7,2023-10-17T00:26:16.672Z,2023-10-17T00:26:16.000Z,f95e0f0fd0ec45969b40da2a681114e1,"$GNGGA,002616.000,3555.846853,N,12656.564001,E,4,49,0.42,13.1,M,20.5,M,1.0,*66
$GNRMC,002616.000,A,3555.846853,N,12656.564001,E,0.003,195.63,171023,,,R,V*25
$GNVTG,195.63,T,,M,0.003,N,0.005,K,D*28
$GNGSA,A,3,05,06,07,11,13,15,20,29,30,,,,0.77,0.42,0.65,1*0C
$GNGSA,A,3,69,70,71,78,79,84,85,,,,,,0.77,0.42,0.65,2*09
$GNGSA,A,3,03,07,08,13,15,26,,,,,,,0.77,0.42,0.65,3*08
$GNGSA,A,3,02,03,04,06,07,08,09,10,13,16,23,24,0.77,0.42,0.65,4*07
$GNGSA,A,3,03,04,07,,,,,,,,,,0.77,0.42,0.65,5*00
"
agip2.gcm.collector.plugin.core.contents.persist.mongo.nmea.Nmea,652dd4a9e4b0775fde0a968a,2023-10-17T00:26:17.602Z,2023-10-17T00:26:17.000Z,f95e0f0fd0ec45969b40da2a681114e1,"$GNGGA,002617.000,3555.846853,N,12656.564002,E,4,49,0.42,13.1,M,20.5,M,1.0,*64
$GNRMC,002617.000,A,3555.846853,N,12656.564002,E,0.002,195.63,171023,,,R,V*26
$GNVTG,195.63,T,,M,0.002,N,0.004,K,D*28
$GNGSA,A,3,05,06,07,11,13,15,20,29,30,,,,0.77,0.42,0.65,1*0C
$GNGSA,A,3,69,70,71,78,79,84,85,,,,,,0.77,0.42,0.65,2*09
$GNGSA,A,3,03,07,08,13,15,26,,,,,,,0.77,0.42,0.65,3*08
$GNGSA,A,3,02,03,04,06,07,08,09,10,13,16,23,24,0.77,0.42,0.65,4*07
$GNGSA,A,3,03,04,07,,,,,,,,,,0.77,0.42,0.65,5*00
"
