9,10,13,16,23,25,0.71,0.40,0.59,4*0D
$GNGSA,A,3,03,04,07,,,,,,,,,,0.71,0.40,0.59,5*0B
"
agip2.gcm.collector.plugin.core.contents.persist.mongo.nmea.Nmea,652dda79e4b0775fde10afdc,2023-10-17T00:51:05.598Z,2023-10-17T00:51:05.000Z,f95e0f0fd0ec45969b40da2a681114e1,"$GNGGA,005105.000,3556.165684,N,12656.741861,E,4,50,0.41,16.6,M,20.5,M,1.0,*69
$GNRMC,005105.000,A,3556.165684,N,12656.741861,E,17.802,017.09,171023,,,R,V*1B
$GNVTG,017.09,T,,M,17.802,N,32.966,K,D*2D
$GNGSA,A,3,05,07,11,13,15,18,20,24,29,30,,,0.71,0.41,0.58,1*0E
$GNGSA,A,3,69,70,71,79,84,85,86,,,,,,0.71,0.41,0.58,2*03
$GNGSA,A,3,03,07,08,13,15,26,,,,,,,0.71,0.41,0.58,3*03
$GNGSA,A,3,02,03,04,06,07,08,09,10,13,16,23,24,0.71,0.41,0.58,4*0C
$GNGSA,A,3,03,04,07,,,,,,,,,,0.71,0.41,0.58,5*0B
"
agip2.gcm.collector.plugin.core.contents.persist.mongo.nmea.Nmea,652dda7ae4b0775fde10b0fb,2023-10-17T00:51:06.628Z,2023-10-17T00:51:06.000Z,f95e0f0fd0ec45969b40da2a681114e1,"$GNGGA,005106.000,3556.170408,N,12656.743670,E,4,50,0.42,16.7,M,20.5,M,1.0,*66
$GNRMC,005106.000,A,3556.170408,N,12656.743670,E,17.818,017.15,171023,,,R,V*10
$GNVTG,017.15,T,,M,17.818,N,32.997,K,D*25
$GNGSA,A,3,05,07,11,13,15,18,20,24,29,30,,,0.75,0.42,0.62,1*00
$GNGSA,A,3,69,70,71,79,84,85,86,,,,,,0.75,0.42,0.62,2*0D
$GNGSA,A,3,03,07,08,13,15,26,,,,,,,0.75,0.42,0.62,3*0D
$GNGSA,A,3,02,03,04,06,07,08,09,10,13,16,23,24,0.75,0.42,0.62,4*02
$GNGSA,A,3,03,04,07,,,,,,,,,,0.75,0.42,0.62,5*05
"
agip2.gcm.collector.plugin.core.contents.persist.mongo.nmea.Nmea,652dda7be4b0775fde10b1e5,2023-10-17T00:51:07.578Z,2023-10-17T00:51:07.000Z,f95e0f0fd0ec45969b40da2a681114e1,"$GNGGA,005107.000,3556.175183,N,12656.745480,E,4,52,0.40,16.9,M,20.5,M,1.0,*61
$GNRMC,005107.000,A,3556.175183,N,12656.745480,E,18.052,017.01,171023,,,R,V*15
$GNVTG,017.01,T,,M,18.052,N,33.429,K,D*20
$GNGSA,A,3,05,07,11,13,15,18,20,24,29,30,,,0.73,0.40,0.61,1*07
$GNGSA,A,3,69,70,71,78,79,80,84,85,86,,,,0.73,0.40,0.61,2*0D
$GNGSA,A,3,03,07,08,13,15,26,,,,,,,0.73,0.40,0.61,3*0A
$GNGSA,A,3,02,03,04,06,07,08,09,10,13,16,23,24,0.73,0.40,0.61,4*05
$GNGSA,A,3,03,04,07,,,,,,,,,,0.73,0.40,0.61,5*02
"
agip2.gcm.collector.plugin.core.contents.persist.mongo.nmea.Nmea,652dda7ce4b0775fde10b334,2023-10-17T00:51:08.658Z,2023-10-17T00:51:08.000Z,f95e0f0fd0ec45969b40da2a681114e1,"$GNGGA,005108.000,3556.180013,N,12656.747289,E,4,51,0.38,17.0,M,20.5,M,1.0,*65
$GNRMC,005108.000,A,3556.180013,N,12656.747289,E,18.215,016.80,171023,,,R,V*1C
$GNVTG,016.80,T,,M,18.215,N,33.732,K,D*20
$GNGSA,A,3,05,07,11,13,15,18,20,24,29,30,,,0.70,0.38,0.59,1*00
$GNGSA,A,3,69,70,71,78,79,80,84,85,86,,,,0.70,0.38,0.59,2*0A
$GNGSA,A,3,03,07,08,13,15,26,,,,,,,0.70,0.38,0.59,3*0D
$GNGSA,A,3,02,03,04,06,07,08,09,10,13,16,23,25,0.70,0.38,0.59,4*03
$GNGSA,A,3,03,04,07,,,,,,,,,,0.70,0.38,0.59,5*05
"
agip2.gcm.collector.plugin.core.contents.persist.mongo.nmea.Nmea,652dda7de4b0775fde10b433,2023-10-17T00:51:09.624Z,2023-10-17T00:51:09.000Z,f95e0f0fd0ec45969b40da2a681114e1,"$GNGGA,005109.000,3556.184854,N,12656.749077,E,4,50,0.38,17.2,M,20.5,M,1.0,*65
$GNRMC,005109.000,A,3556.184854,N,12656.749077,E,18.206,016.69,171023,,,R,V*1A
$GNVTG,016.69,T,,M,18.206,N,33.714,K,D*21
$GNGSA,A,3,05,11,13,15,18,20,24,29,30,,,,0.70,0.38,0.59,1*07
$GNGSA,A,3,69,70,71,78,79,80,84,85,86,,,,0.70,0.38,0.59,2*0A
$GNGSA,A,3,03,07,08,13,15,26,,,,,,,0.70,0.38,0.59,3*0D
$GNGSA,A,3,02,03,04,06,07,08,09,10,13,16,23,25,0.70,0.38,0.59,4*03
$GNGSA,A,3,03,04,07,,,,,,,,,,0.70,0.38,0.59,5*05
"
agip2.gcm.collector.plugin.core.contents.persist.mongo.nmea.Nmea,652dda7ee4b0775fde10b51b,2023-10-17T00:51:10.588Z,2023-10-17T00:51:10.000Z,f95e0f0fd0ec45969b40da2a681114e1,"$GNGGA,005110.000,3556.189752,N,12656.750918,E,4,51,0.42,17.3,M,20.5,M,1.0,*6C
$GNRMC,005110.000,A,3556.189752,N,12656.750918,E,18.675,017.05,171023,,,R,V*15
$GNVTG,017.05,T,,M,18.675,N,34.584,K,D*26
$GNGSA,A,3,05,07,11,13,15,18,20,24,29,30,,,0.75,0.42,0.62,1*00
$GNGSA,A,3,69,70,71,78,79,80,84,85,86,,,,0.75,0.42,0.62,2*0A
$GNGSA,A,3,03,07,08,13,15,26,,,,,,,0.75,0.42,0.62,3*0D
$GNGSA,A,3,02,03,04,06,07,08,09,10,13,16,23,25,0.75,0.42,0.62,4*03
$GNGSA,A,3,03,04,07,,,,,,,,,,0.75,0.42,0.62,5*05
"
agip2.gcm.collector.plugin.core.contents.persist.mongo.nmea.Nmea,652dda7fe4b0775fde10b619,2023-10-17T00:51:11.553Z,2023-10-17T00:51:11.000Z,f95e0f0fd0ec45969b40da2a681114e1,"$GNGGA,005111.000,3556.194766,N,12656.752923,E,4,51,0.42,17.4,M,20.5,M,1.0,*6B
$GNRMC,005111.000,A,3556.194766,N,12656.752923,E,19.265,017.68,171023,,,R,V*1A
$GNVTG,017.68,T,,M,19.265,N,35.676,K,D*26
$GNGSA,A,3,05,07,11,13,15,18,20,24,29,30,,,0.75,0.42,0.62,1*00
$GNGSA,A,3,69,70,71,78,79,80,84,85,86,,,,0.75,0.42,0.62,2*0A
$GNGSA,A,3,03,07,08,13,15,26,,,,,,,0.75,0.42,0.62,3*0D
$GNGSA,A,3,02,03,04,06,07,08,09,10,13,16,23,25,0.75,0.42,0.62,4*03
$GNGSA,A,3,03,04,07,,,,,,,,,,0.75,0.42,0.62,5*05
"
agip2.gcm.collector.plugin.core.contents.persist.mongo.nmea.Nmea,652dda80e4b0775fde10b74c,2023-10-17T00:51:12.598Z,2023-10-17T00:51:12.000Z,f95e0f0fd0ec45969b40da2a681114e1,"$GNGGA,005112.000,3556.199938,N,12656.755035,E,4,49,0.43,17.5,M,20.5,M,1.0,*60
$GNRMC,005112.000,A,3556.199938,N,12656.755035,E,19.963,018.13,171023,,,R,V*16
$GNVTG,018.13,T,,M,19.963,N,36.968,K,D*2B
$GNGSA,A,3,05,11,13,15,18,20,24,29,30,,,,0.80,0.43,0.67,1*09
$GNGSA,A,3,69,70,71,78,79,80,84,85,86,,,,0.80,0.43,0.67,2*04
$GNGSA,A,3,03,07,08,13,15,26,,,,,,,0.80,0.43,0.67,3*03
$GNGSA,A,3,02,03,04,06,07,08,09,10,13,16,25,27,0.80,0.43,0.67,4*09
$GNGSA,A,3,03,04,07,,,,,,,,,,0.80,0.43,0.67,5*0B
"
agip2.gcm.collector.plugin.core.contents.persist.mongo.nmea.Nmea,652dda81e4b0775fde10b861,2023-10-17T00:51:13.588Z,2023-10-17T00:51:13.000Z,f95e0f0fd0ec45969b40da2a681114e1,"$GNGGA,005113.000,3556.205286,N,12656.757237,E,4,50,0.49,17.7,M,20.5,M,1.0,*6B
$GNRMC,005113.000,A,3556.205286,N,12656.757237,E,20.438,018.27,171023,,,R,V*13
$GNVTG,018.27,T,,M,20.438,N,37.848,K,D*27
$GNGSA,A,3,05,11,13,15,18,20,24,29,30,,,,0.91,0.49,0.76,1*03
$GNGSA,A,3,69,70,71,78,79,80,84,85,86,,,,0.91,0.49,0.76,2*0E
$GNGSA,A,3,03,07,08,13,15,26,,,,,,,0.91,0.49,0.76,3*09
$GNGSA,A,3,02,03,04,06,07,08,09,10,13,16,23,25,0.91,0.49,0.76,4*07
$GNGSA,A,3,03,04,07,,,,,,,,,,0.91,0.49,0.76,5*01
"
agip2.gcm.collector.plugin.core.contents.persist.mongo.nmea.Nmea,652dda82e4b0775fde10b9ae,2023-10-17T00:51:14.648Z,2023-10-17T00:51:14.000Z,f95e0f0fd0ec45969b40da2a681114e1,"$GNGGA,005114.000,3556.210693,N,12656.759429,E,4,48,0.43,17.8,M,20.5,M,1.0,*63
$GNRMC,005114.000,A,3556.210693,N,12656.759429,E,20.658,018.13,171023,,,R,V*14
$GNVTG,018.13,T,,M,20.658,N,38.255,K,D*2D
$GNGSA,A,3,05,11,13,15,18,20,24,29,,,,,0.77,0.43,0.64,1*01
$GNGSA,A,3,69,70,71,78,79,80,84,85,86,,,,0.77,0.43,0.64,2*0F
$GNGSA,A,3,03,07,08,13,15,26,,,,,,,0.77,0.43,0.64,3*08
$GNGSA,A,3,02,03,04,06,07,08,09,10,13,16,23,25,0.77,0.43,0.64,4*06
$GNGSA,A,3,03,04,07,,,,,,,,,,0.77,0.43,0.64,5*00
"
agip2.gcm.collector.plugin.core.contents.persist.mongo.nmea.Nmea,652dda83e4b0775fde10ba82,2023-10-17T00:51:15.596Z,2023-10-17T00:51:15.000Z,f95e0f0fd0ec45969b40da2a681114e1,"$GNGGA,005115.000,3556.216215,N,12656.761636,E,4,50,0.42,17.9,M,20.5,M,1.0,*60
$GNRMC,005115.000,A,3556.216215,N,12656.761636,E,21.121,018.01,171023,,,R,V*15
$GNVTG,018.01,T,,M,21.121,N,39.113,K,D*26
$GNGSA,A,3,05,11,13,15,18,20,24,29,30,,,,0.76,0.42,0.63,1*05
$GNGSA,A,3,69,70,71,78,79,80,84,85,86,,,,0.76,0.42,0.63,2*08
$GNGSA,A,3,03,07,08,13,15,26,,,,,,,0.76,0.42,0.63,3*0F
$GNGSA,A,3,02,03,04,06,07,08,09,10,13,16,23,25,0.76,0.42,0.63,4*01
$GNGSA,A,3,03,04,07,,,,,,,,,,0.76,0.42,0.63,5*07
"
agip2.gcm.collector.plugin.core.contents.persist.mongo.nmea.Nmea,652dda84e4b0775fde10bb92,2023-10-17T00:51:16.598Z,2023-10-17T00:51:16.000Z,f95e0f0fd0ec45969b40da2a681114e1,"$GNGGA,005116.000,3556.221859,N,12656.764012,E,4,49,0.44,18.1,M,20.5,M,1.0,*69
$GNRMC,005116.000,A,3556.221859,N,12656.764012,E,21.674,018.87,171023,,,R,V*1C
$GNVTG,018.87,T,,M,21.674,N,40.136,K,D*26
$GNGSA,A,3,05,13,15,18,20,24,29,30,,,,,0.78,0.44,0.64,1*0A
$GNGSA,A,3,69,70,71,78,79,80,84,85,86,,,,0.78,0.44,0.64,2*07
$GNGSA,A,3,03,07,08,13,15,26,,,,,,,0.78,0.44,0.64,3*00
$GNGSA,A,3,02,03,04,06,07,08,09,10,13,16,23,25,0.78,0.44,0.64,4*0E
$GNGSA,A,3,03,04,07,,,,,,,,,,0.78,0.44,0.64,5*08
"
agip2.gcm.collector.plugin.core.contents.persist.mongo.nmea.Nmea,652dda85e4b0775fde10bc80,2023-10-17T00:51:17.538Z,2023-10-17T00:51:17.000Z,f95e0f0fd0ec45969b40da2a681114e1,"$GNGGA,005117.000,3556.227514,N,12656.766496,E,4,51,0.40,18.3,M,20.5,M,1.0,*6F
$GNRMC,005117.000,A,3556.227514,N,12656.766496,E,21.571,019.43,171023,,,R,V*1A
$GNVTG,019.43,T,,M,21.571,N,39.946,K,D*28
$GNGSA,A,3,05,07,11,13,15,18,20,24,29,30,,,0.72,0.40,0.60,1*07
$GNGSA,A,3,69,70,71,78,79,80,84,85,86,,,,0.72,0.40,0.60,2*0D
$GNGSA,A,3,03,07,08,13,15,26,,,,,,,0.72,0.40,0.60,3*0A
$GNGSA,A,3,02,03,04,06,07,08,09,10,13,16,23,25,0.72,0.40,0.60,4*04
$GNGSA,A,3,03,04,07,,,,,,,,,,0.72,0.40,0.60,5*02
"
agip2.gcm.collector.plugin.core.contents.persist.mongo.nmea.Nmea,652dda86e4b0775fde10bdee,2023-10-17T00:51:18.646Z,2023-10-17T00:51:18.000Z,f95e0f0fd0ec45969b40da2a681114e1,"$GNGGA,005118.000,3556.233146,N,12656.768958,E,4,51,0.42,18.5,M,20.5,M,1.0,*63
$GNRMC,005118.000,A,3556.233146,N,12656.768958,E,21.392,019.20,171023,,,R,V*1C
$GNVTG,019.20,T,,M,21.392,N,39.615,K,D*2F
$GNGSA,A,3,05,07,11,13,15,18,20,24,29,,,,0.75,0.42,0.62,1*03
$GNGSA,A,3,69,70,71,78,79,80,84,85,86,,,,0.75,0.42,0.62,2*0A
$GNGSA,A,3,03,07,08,13,15,26,,,,,,,0.75,0.42,0.62,3*0D
$GNGSA,A,3,02,03,04,06,07,08,09,10,13,16,23,24,0.75,0.42,0.62,4*02
$GNGSA,A,3,03,04,07,,,,,,,,,,0.75,0.42,0.62,5*05
"
agip2.gcm.collector.plugin.core.contents.persist.mongo.nmea.Nmea,652dda87e4b0775fde10beb0,2023-10-17T00:51:19.548Z,2023-10-17T00:51:19.000Z,f95e0f0fd0ec45969b40da2a681114e1,"$GNGGA,005119.000,3556.238755,N,12656.771346,E,4,51,0.43,18.6,M,20.5,M,1.0,*62
$GNRMC,005119.000,A,3556.238755,N,12656.771346,E,21.269,019.09,171023,,,R,V*11
$GNVTG,019.09,T,,M,21.269,N,39.386,K,D*2E
$GNGSA,A,3,05,07,11,13,15,18,20,24,29,,,,0.76,0.43,0.63,1*00
$GNGSA,A,3,69,70,71,78,79,80,84,85,86,,,,0.76,0.43,0.63,2*09
$GNGSA,A,3,03,07,08,13,15,26,,,,,,,0.76,0.43,0.63,3*0E
$GNGSA,A,3,02,03,04,06,07,08,09,10,13,16,23,24,0.76,0.43,0.63,4*01
$GNGSA,A,3,03,04,07,,,,,,,,,,0.76,0.43,0.63,5*06
"
agip2.gcm.collector.plugin.core.contents.persist.mongo.nmea.Nmea,652dda88e4b0775fde10c00d,2023-10-17T00:51:20.636Z,2023-10-17T00:51:20.000Z,f95e0f0fd0ec45969b40da2a681114e1,"$GNGGA,005120.000,3556.244355,N,12656.773692,E,4,51,0.44,18.7,M,20.5,M,1.0,*6F
$GNRMC,005120.000,A,3556.244355,N,12656.773692,E,21.152,018.45,171023,,,R,V*18
$GNVTG,018.45,T,,M,21.152,N,39.170,K,D*27
$GNGSA,A,3,05,07,11,13,15,18,20,24,29,,,,0.76,0.44,0.62,1*06
$GNGSA,A,3,69,70,71,78,79,80,84,85,86,,,,0.76,0.44,0.62,2*0F
$GNGSA,A,3,03,07,08,13,15,26,,,,,,,0.76,0.44,0.62,3*08
$GNGSA,A,3,02,03,04,06,07,08,09,10,13,16,23,24,0.76,0.44,0.62,4*07
$GNGSA,A,3,03,04,07,,,,,,,,,,0.76,0.44,0.62,5*00
"
agip2.gcm.collector.plugin.core.contents.persist.mongo.nmea.Nmea,652dda89e4b0775fde10c0d7,2023-10-17T00:51:21.558Z,2023-10-17T00:51:21.000Z,f95e0f0fd0ec45969b40da2a681114e1,"$GNGGA,005121.000,3556.249975,N,12656.775953,E,4,50,0.44,18.8,M,20.5,M,1.0,*61
$GNRMC,005121.000,A,3556.249975,N,12656.775953,E,21.185,018.27,171023,,,R,V*16
$GNVTG,018.27,T,,M,21.185,N,39.231,K,D*2F
$GNGSA,A,3,05,13,15,18,20,29,30,11,,,,,0.74,0.44,0.60,1*04
$GNGSA,A,3,69,70,71,78,79,80,84,85,86,,,,0.74,0.44,0.60,2*0F
$GNGSA,A,3,03,07,08,13,15,26,,,,,,,0.74,0.44,0.60,3*08
$GNGSA,A,3,02,03,04,06,07,08,09,10,13,16,23,24,0.74,0.44,0.60,4*07
$GNGSA,A,3,03,04,07,,,,,,,,,,0.74,0.44,0.60,5*00
"
agip2.gcm.collector.plugin.core.contents.persist.mongo.nmea.Nmea,652dda8ae4b0775fde10c1f0,2023-10-17T00:51:22.558Z,2023-10-17T00:51:22.000Z,f95e0f0fd0ec45969b40da2a681114e1,"$GNGGA,005122.000,3556.255558,N,12656.778264,E,4,50,0.48,18.9,M,20.5,M,1.0,*63
$GNRMC,005122.000,A,3556.255558,N,12656.778264,E,21.131,018.52,171023,,,R,V*14
$GNVTG,018.52,T,,M,21.131,N,39.131,K,D*21
$GNGSA,A,3,05,07,13,15,18,20,29,30,11,,,,0.83,0.48,0.68,1*0F
$GNGSA,A,3,69,70,71,78,79,80,84,85,86,,,,0.83,0.48,0.68,2*03
$GNGSA,A,3,03,07,08,13,15,26,,,,,,,0.83,0.48,0.68,3*04
$GNGSA,A,3,02,03,06,07,08,09,10,13,16,23,24,25,0.83,0.48,0.68,4*08
$GNGSA,A,3,03,04,07,,,,,,,,,,0.83,0.48,0.68,5*0C
"
agip2.gcm.collector.plugin.core.contents.persist.mongo.nmea.Nmea,652dda8be4b0775fde10c2f5,2023-10-17T00:51:23.508Z,2023-10-17T00:51:23.000Z,f95e0f0fd0ec45969b40da2a681114e1,"$GNGGA,005123.000,3556.261126,N,12656.780494,E,4,51,0.45,19.0,M,20.5,M,1.0,*62
$GNRMC,005123.000,A,3556.261126,N,12656.780494,E,21.146,018.37,171023,,,R,V*12
$GNVTG,018.37,T,,M,21.146,N,39.160,K,D*26
$GNGSA,A,3,05,07,11,13,15,18,20,24,29,30,,,0.81,0.45,0.67,1*09
$GNGSA,A,3,69,70,71,78,79,80,84,85,86,,,,0.81,0.45,0.67,2*03
$GNGSA,A,3,03,07,08,13,15,26,,,,,,,0.81,0.45,0.67,3*04
$GNGSA,A,3,02,03,06,07,08,09,10,13,16,23,24,25,0.81,0.45,0.67,4*08
$GNGSA,A,3,03,04,07,,,,,,,,,,0.81,0.45,0.67,5*0C
"
agip2.gcm.collector.plugin.core.contents.persist.mongo.nmea.Nmea,652dda8ce4b0775fde10c42c,2023-10-17T00:51:24.586Z,2023-10-17T00:51:24.000Z,f95e0f0fd0ec45969b40da2a681114e1,"$GNGGA,005124.000,3556.266631,N,12656.782743,E,4,49,0.46,19.1,M,20.5,M,1.0,*63
$GNRMC,005124.000,A,3556.266631,N,12656.782743,E,20.588,018.08,171023,,,R,V*13
$GNVTG,018.08,T,,M,20.588,N,38.126,K,D*2E
$GNGSA,A,3,05,07,11,13,15,18,20,29,30,,,,0.82,0.46,0.68,1*00
$GNGSA,A,3,69,70,71,78,79,80,84,85,86,,,,0.82,0.46,0.68,2*0C
$GNGSA,A,3,03,07,08,13,15,26,,,,,,,0.82,0.46,0.68,3*0B
$GNGSA,A,3,02,03,06,07,08,09,10,13,16,24,25,27,0.82,0.46,0.68,4*03
$GNGSA,A,3,03,04,07,,,,,,,,,,0.82,0.46,0.68,5*03
"
agip2.gcm.collector.plugin.core.contents.persist.mongo.nmea.Nmea,652dda8de4b0775fde10c525,2023-10-17T00:51:25.548Z,2023-10-17T00:51:25.000Z,f95e0f0fd0ec45969b40da2a681114e1,"$GNGGA,005125.000,3556.271997,N,12656.784802,E,4,50,0.41,19.2,M,20.5,M,1.0,*67
$GNRMC,005125.000,A,3556.271997,N,12656.784802,E,20.023,017.54,171023,,,R,V*19
$GNVTG,017.54,T,,M,20.023,N,37.079,K,D*28
$GNGSA,A,3,05,07,11,13,15,18,20,24,29,30,,,0.74,0.41,0.62,1*02
$GNGSA,A,3,69,70,71,78,79,80,84,85,86,,,,0.74,0.41,0.62,2*08
$GNGSA,A,3,03,07,08,13,15,26,,,,,,,0.74,0.41,0.62,3*0F
$GNGSA,A,3,02,03,06,07,08,09,10,13,16,24,25,27,0.74,0.41,0.62,4*07
$GNGSA,A,3,03,04,07,,,,,,,,,,0.74,0.41,0.62,5*07
"
agip2.gcm.collector.plugin.core.contents.persist.mongo.nmea.Nmea,652dda8ee4b0775fde10c648,2023-10-17T00:51:26.576Z,2023-10-17T00:51:26.000Z,f95e0f0fd0ec45969b40da2a681114e1,"$GNGGA,005126.000,3556.277200,N,12656.786809,E,4,50,0.40,19.2,M,20.5,M,1.0,*6F
$GNRMC,005126.000,A,3556.277200,N,12656.786809,E,19.031,017.04,171023,,,R,V*1C
$GNVTG,017.04,T,,M,19.031,N,35.242,K,D*2C
$GNGSA,A,3,05,07,11,13,15,18,20,29,30,,,,0.74,0.40,0.62,1*05
$GNGSA,A,3,69,70,71,78,79,80,84,85,86,,,,0.74,0.40,0.62,2*09
$GNGSA,A,3,03,07,08,13,15,26,,,,,,,0.74,0.40,0.62,3*0E
$GNGSA,A,3,02,03,04,06,07,08,09,10,13,16,24,25,0.74,0.40,0.62,4*07
$GNGSA,A,3,03,04,07,,,,,,,,,,0.74,0.40,0.62,5*06
"
agip2.gcm.collector.plugin.core.contents.persist.mongo.nmea.Nmea,652dda8fe4b0775fde10c73f,2023-10-17T00:51:27.505Z,2023-10-17T00:51:27.000Z,f95e0f0fd0ec45969b40da2a681114e1,"$GNGGA,005127.000,3556.282069,N,12656.788612,E,4,51,0.40,19.2,M,20.5,M,1.0,*62
$GNRMC,005127.000,A,3556.282069,N,12656.788612,E,17.805,016.76,171023,,,R,V*15
$GNVTG,016.76,T,,M,17.805,N,32.972,K,D*26
$GNGSA,A,3,05,07,11,13,15,18,20,29,30,,,,0.71,0.40,0.59,1*08
$GNGSA,A,3,69,70,71,78,79,80,84,85,86,,,,0.71,0.40,0.59,2*04
$GNGSA,A,3,03,07,08,13,15,26,,,,,,,0.71,0.40,0.59,3*03
$GNGSA,A,3,02,03,04,06,07,08,09,10,13,16,23,24,0.71,0.40,0.59,4*0C
$GNGSA,A,3,03,04,07,,,,,,,,,,0.71,0.40,0.59,5*0B
"
agip2.gcm.collector.plugin.core.contents.persist.mongo.nmea.Nmea,652dda90e4b0775fde10c85d,2023-10-17T00:51:28.535Z,2023-10-17T00:51:28.000Z,f95e0f0fd0ec45969b40da2a681114e1,"$GNGGA,005128.000,3556.286565,N,12656.790283,E,4,51,0.39,19.2,M,20.5,M,1.0,*6B
$GNRMC,005128.000,A,3556.286565,N,12656.790283,E,15.992,017.03,171023,,,R,V*1C
$GNVTG,017.03,T,,M,15.992,N,29.615,K,D*2C
$GNGSA,A,3,05,07,11,13,15,18,20,29,30,,,,0.72,0.39,0.60,1*0F
$GNGSA,A,3,69,70,71,78,79,80,84,85,86,,,,0.72,0.39,0.60,2*03
$GNGSA,A,3,03,07,08,13,15,26,,,,,,,0.72,0.39,0.60,3*04
$GNGSA,A,3,02,03,04,06,07,08,09,10,13,16,23,24,0.72,0.39,0.60,4*0B
$GNGSA,A,3,03,04,07,,,,,,,,,,0.72,0.39,0.60,5*0C
"
agip2.gcm.collector.plugin.core.contents.persist.mongo.nmea.Nmea,652dda91e4b0775fde10c972,2023-10-17T00:51:29.545Z,2023-10-17T00:51:29.000Z,f95e0f0fd0ec45969b40da2a681114e1,"$GNGGA,005129.000,3556.290651,N,12656.791982,E,4,51,0.42,19.1,M,20.5,M,1.0,*6D
$GNRMC,005129.000,A,3556.290651,N,12656.791982,E,14.983,017.90,171023,,,R,V*1E
$GNVTG,017.90,T,,M,14.983,N,27.746,K,D*2E
$GNGSA,A,3,05,07,11,13,15,18,20,29,30,,,,0.81,0.42,0.70,1*0E
$GNGSA,A,3,69,70,71,78,79,80,84,85,86,,,,0.81,0.42,0.70,2*02
$GNGSA,A,3,03,07,08,13,15,26,,,,,,,0.81,0.42,0.70,3*05
$GNGSA,A,3,02,03,04,06,07,08,09,10,13,16,23,24,0.81,0.42,0.70,4*0A
$GNGSA,A,3,03,04,07,,,,,,,,,,0.81,0.42,0.70,5*0D
"
agip2.gcm.collector.plugin.core.contents.persist.mongo.nmea.Nmea,652dda92e4b0775fde10ca87,2023-10-17T00:51:30.554Z,2023-10-17T00:51:30.000Z,f95e0f0fd0ec45969b40da2a681114e1,"$GNGGA,005130.000,3556.294406,N,12656.793464,E,4,51,0.41,19.1,M,20.5,M,1.0,*65
$GNRMC,005130.000,A,3556.294406,N,12656.793464,E,13.455,017.86,171023,,,R,V*13
$GNVTG,017.86,T,,M,13.455,N,24.916,K,D*20
$GNGSA,A,3,05,07,11,13,15,18,20,29,30,,,,0.80,0.41,0.69,1*04
$GNGSA,A,3,69,70,71,78,79,80,84,85,86,,,,0.80,0.41,0.69,2*08
$GNGSA,A,3,03,07,08,13,15,26,,,,,,,0.80,0.41,0.69,3*0F
$GNGSA,A,3,02,03,04,06,07,08,09,10,13,16,23,24,0.80,0.41,0.69,4*00
$GNGSA,A,3,03,04,07,,,,,,,,,,0.80,0.41,0.69,5*07
"
agip2.gcm.collector.plugin.core.contents.persist.mongo.nmea.Nmea,652dda93e4b0775fde10cb95,2023-10-17T00:51:31.534Z,2023-10-17T00:51:31.000Z,f95e0f0fd0ec45969b40da2a681114e1,"$GNGGA,005131.000,3556.297781,N,12656.794808,E,4,51,0.41,19.0,M,20.5,M,1.0,*6B
$GNRMC,005131.000,A,3556.297781,N,12656.794808,E,11.974,017.85,171023,,,R,V*13
$GNVTG,017.85,T,,M,11.974,N,22.175,K,D*24
$GNGSA,A,3,05,07,11,13,15,18,20,29,30,,,,0.76,0.41,0.65,1*01
$GNGSA,A,3,69,70,71,78,79,80,84,85,86,,,,0.76,0.41,0.65,2*0D
$GNGSA,A,3,03,07,08,13,15,26,,,,,,,0.76,0.41,0.65,3*0A
$GNGSA,A,3,02,03,04,06,07,08,09,10,13,16,23,24,0.76,0.41,0.65,4*05
$GNGSA,A,3,03,04,07,,,,,,,,,,0.76,0.41,0.65,5*02
"
agip2.gcm.collector.plugin.core.contents.persist.mongo.nmea.Nmea,652dda94e4b0775fde10cd12,2023-10-17T00:51:32.664Z,2023-10-17T00:51:32.000Z,f95e0f0fd0ec45969b40da2a681114e1,"$GNGGA,005132.000,3556.300728,N,12656.795936,E,4,51,0.44,18.9,M,20.5,M,1.0,*64
$GNRMC,005132.000,A,3556.300728,N,12656.795936,E,10.565,017.37,171023,,,R,V*15
$GNVTG,017.37,T,,M,10.565,N,19.566,K,D*2E
$GNGSA,A,3,05,07,11,13,15,18,20,29,30,,,,0.79,0.44,0.66,1*08
$GNGSA,A,3,69,70,71,78,79,80,84,85,86,,,,0.79,0.44,0.66,2*04
$GNGSA,A,3,03,07,08,13,15,26,,,,,,,0.79,0.44,0.66,3*03
$GNGSA,A,3,02,03,04,06,07,08,09,10,13,16,23,24,0.79,0.44,0.66,4*0C
$GNGSA,A,3,03,04,07,,,,,,,,,,0.79,0.44,0.66,5*0B
"
agip2.gcm.collector.plugin.core.contents.persist.mongo.nmea.Nmea,652dda95e4b0775fde10cddb,2023-10-17T00:51:33.584Z,2023-10-17T00:51:33.000Z,f95e0f0fd0ec45969b40da2a681114e1,"$GNGGA,005133.000,3556.303430,N,12656.796974,E,4,51,0.47,18.9,M,20.5,M,1.0,*6A
$GNRMC,005133.000,A,3556.303430,N,12656.796974,E,9.537,017.35,171023,,,R,V*25
$GNVTG,017.35,T,,M,9.537,N,17.661,K,D*19
$GNGSA,A,3,05,07,11,13,15,18,20,29,30,,,,0.93,0.47,0.81,1*06
$GNGSA,A,3,69,70,71,78,79,80,84,85,86,,,,0.93,0.47,0.81,2*0A
$GNGSA,A,3,03,07,08,13,15,26,,,,,,,0.93,0.47,0.81,3*0D
$GNGSA,A,3,02,03,04,06,07,08,09,10,13,16,23,24,0.93,0.47,0.81,4*02
$GNGSA,A,3,03,04,07,,,,,,,,,,0.93,0.47,0.81,5*05
"
agip2.gcm.collector.plugin.core.contents.persist.mongo.nmea.Nmea,652dda96e4b0775fde10cf0d,2023-10-17T00:51:34.610Z,2023-10-17T00:51:34.000Z,f95e0f0fd0ec45969b40da2a681114e1,"$GNGGA,005134.000,3556.305809,N,12656.797879,E,4,50,0.45,18.8,M,20.5,M,1.0,*62
$GNRMC,005134.000,A,3556.305809,N,12656.797879,E,8.366,017.52,171023,,,R,V*2D
$GNVTG,017.52,T,,M,8.366,N,15.492,K,D*17
$GNGSA,A,3,05,11,13,15,18,20,29,30,,,,,0.86,0.45,0.74,1*0D
$GNGSA,A,3,69,70,71,78,79,80,84,85,86,,,,0.86,0.45,0.74,2*06
$GNGSA,A,3,03,07,08,13,15,26,,,,,,,0.86,0.45,0.74,3*01
$GNGSA,A,3,02,03,04,06,07,08,09,10,13,16,23,24,0.86,0.45,0.74,4*0E
$GNGSA,A,3,03,04,07,,,,,,,,,,0.86,0.45,0.74,5*09
"
agip2.gcm.collector.plugin.core.contents.persist.mongo.nmea.Nmea,652dda97e4b0775fde10cfd9,2023-10-17T00:51:35.514Z,2023-10-17T00:51:35.000Z,f95e0f0fd0ec45969b40da2a681114e1,"$GNGGA,005135.000,3556.307796,N,12656.798666,E,4,51,0.46,18.7,M,20.5,M,1.0,*6A
$GNRMC,005135.000,A,3556.307796,N,12656.798666,E,6.472,017.45,171023,,,R,V*22
$GNVTG,017.45,T,,M,6.472,N,11.986,K,D*11
$GNGSA,A,3,05,07,11,13,15,18,20,29,30,,,,0.87,0.46,0.74,1*08
$GNGSA,A,3,69,70,71,78,79,80,84,85,86,,,,0.87,0.46,0.74,2*04
$GNGSA,A,3,03,07,08,13,15,26,,,,,,,0.87,0.46,0.74,3*03
$GNGSA,A,3,02,03,04,06,07,08,09,10,13,16,23,24,0.87,0.46,0.74,4*0C
$GNGSA,A,3,03,04,07,,,,,,,,,,0.87,0.46,0.74,5*0B
"
agip2.gcm.collector.plugin.core.contents.persist.mongo.nmea.Nmea,652dda98e4b0775fde10d10d,2023-10-17T00:51:36.574Z,2023-10-17T00:51:36.000Z,f95e0f0fd0ec45969b40da2a681114e1,"$GNGGA,005136.000,3556.309310,N,12656.799237,E,4,50,0.46,18.6,M,20.5,M,1.0,*6C
$GNRMC,005136.000,A,3556.309310,N,12656.799237,E,5.148,017.38,171023,,,R,V*21
$GNVTG,017.38,T,,M,5.148,N,9.534,K,D*28
$GNGSA,A,3,05,11,13,15,18,20,29,30,,,,,0.90,0.46,0.77,1*0A
$GNGSA,A,3,69,70,71,78,79,80,84,85,86,,,,0.90,0.46,0.77,2*01
$GNGSA,A,3,03,07,08,13,15,26,,,,,,,0.90,0.46,0.77,3*06
$GNGSA,A,3,02,03,04,06,07,08,09,10,13,16,23,24,0.90,0.46,0.77,4*09
$GNGSA,A,3,03,04,07,,,,,,,,,,0.90,0.46,0.77,5*0E
"
agip2.gcm.collector.plugin.core.contents.persist.mongo.nmea.Nmea,652dda99e4b0775fde10d202,2023-10-17T00:51:37.504Z,2023-10-17T00:51:37.000Z,f95e0f0fd0ec45969b40da2a681114e1,"$GNGGA,005137.000,3556.310467,N,12656.799678,E,4,50,0.45,18.6,M,20.5,M,1.0,*6E
$GNRMC,005137.000,A,3556.310467,N,12656.799678,E,3.427,017.32,171023,,,R,V*20
$GNVTG,017.32,T,,M,3.427,N,6.346,K,D*24
$GNGSA,A,3,05,11,13,15,18,20,29,30,,,,,0.85,0.45,0.73,1*09
$GNGSA,A,3,69,70,71,78,79,80,84,85,86,,,,0.85,0.45,0.73,2*02
$GNGSA,A,3,03,07,08,13,15,26,,,,,,,0.85,0.45,0.73,3*05
$GNGSA,A,3,02,03,04,06,07,08,09,10,13,16,23,24,0.85,0.45,0.73,4*0A
$GNGSA,A,3,03,04,07,,,,,,,,,,0.85,0.45,0.73,5*0D
"
agip2.gcm.collector.plugin.core.contents.persist.mongo.nmea.Nmea,652dda9ae4b0775fde10d338,2023-10-17T00:51:38.554Z,2023-10-17T00:51:38.000Z,f95e0f0fd0ec45969b40da2a681114e1,"$GNGGA,005138.000,3556.311211,N,12656.799953,E,4,51,0.52,18.6,M,20.5,M,1.0,*66
$GNRMC,005138.000,A,3556.311211,N,12656.799953,E,2.466,017.27,171023,,,R,V*2F
$GNVTG,017.27,T,,M,2.466,N,4.566,K,D*22
$GNGSA,A,3,05,07,11,13,15,18,20,29,30,,,,1.05,0.52,0.91,1*0D
$GNGSA,A,3,69,70,71,78,79,80,84,85,86,,,,1.05,0.52,0.91,2*01
$GNGSA,A,3,03,07,08,13,15,26,,,,,,,1.05,0.52,0.91,3*06
$GNGSA,A,3,02,03,04,06,07,08,09,10,13,16,23,24,1.05,0.52,0.91,4*09
$GNGSA,A,3,03,04,07,,,,,,,,,,1.05,0.52,0.91,5*0E
"
agip2.gcm.collector.plugin.core.contents.persist.mongo.nmea.Nmea,652dda9be4b0775fde10d42d,2023-10-17T00:51:39.494Z,2023-10-17T00:51:39.000Z,f95e0f0fd0ec45969b40da2a681114e1,"$GNGGA,005139.000,3556.311894,N,12656.800207,E,4,51,0.46,18.6,M,20.5,M,1.0,*60
$GNRMC,005139.000,A,3556.311894,N,12656.800207,E,2.688,017.20,171023,,,R,V*29
$GNVTG,017.20,T,,M,2.688,N,4.977,K,D*2B
$GNGSA,A,3,05,07,11,13,15,18,20,24,29,30,,,0.84,0.46,0.70,1*09
$GNGSA,A,3,69,70,71,78,79,80,84,85,86,,,,0.84,0.46,0.70,2*03
$GNGSA,A,3,03,07,08,13,15,26,,,,,,,0.84,0.46,0.70,3*04
$GNGSA,A,3,02,03,04,06,07,08,09,10,13,16,23,24,0.84,0.46,0.70,4*0B
$GNGSA,A,3,03,04,07,,,,,,,,,,0.84,0.46,0.70,5*0C
"
agip2.gcm.collector.plugin.core.contents.persist.mongo.nmea.Nmea,652dda9ce4b0775fde10d554,2023-10-17T00:51:40.534Z,2023-10-17T00:51:40.000Z,f95e0f0fd0ec45969b40da2a681114e1,"$GNGGA,005140.000,3556.312629,N,12656.800481,E,4,49,0.48,18.6,M,20.5,M,1.0,*6A
$GNRMC,005140.000,A,3556.312629,N,12656.800481,E,3.020,017.17,171023,,,R,V*25
$GNVTG,017.17,T,,M,3.020,N,5.593,K,D*2D
$GNGSA,A,3,05,11,13,15,18,20,24,29,30,,,,0.89,0.48,0.76,1*0B
$GNGSA,A,3,69,70,71,78,79,80,84,85,86,,,,0.89,0.48,0.76,2*06
$GNGSA,A,3,03,07,08,13,15,26,,,,,,,0.89,0.48,0.76,3*01
$GNGSA,A,3,02,03,04,06,07,08,09,10,13,16,23,24,0.89,0.48,0.76,4*0E
$GNGSA,A,3,03,04,07,,,,,,,,,,0.89,0.48,0.76,5*09
"
agip2.gcm.collector.plugin.core.contents.persist.mongo.nmea.Nmea,652dda9de4b0775fde10d65e,2023-10-17T00:51:41.494Z,2023-10-17T00:51:41.000Z,f95e0f0fd0ec45969b40da2a681114e1,"$GNGGA,005141.000,3556.313688,N,12656.800885,E,4,50,0.49,18.6,M,20.5,M,1.0,*60
$GNRMC,005141.000,A,3556.313688,N,12656.800885,E,5.028,017.27,171023,,,R,V*2B
$GNVTG,017.27,T,,M,5.028,N,9.311,K,D*20
$GNGSA,A,3,05,11,13,15,18,20,29,30,,,,,0.88,0.49,0.73,1*08
$GNGSA,A,3,69,70,71,78,79,80,84,85,86,,,,0.88,0.49,0.73,2*03
$GNGSA,A,3,03,07,08,13,15,26,,,,,,,0.88,0.49,0.73,3*04
$GNGSA,A,3,02,03,04,06,07,08,09,10,13,16,23,24,0.88,0.49,0.73,4*0B
$GNGSA,A,3,03,04,07,,,,,,,,,,0.88,0.49,0.73,5*0C
"
agip2.gcm.collector.plugin.core.contents.persist.mongo.nmea.Nmea,652dda9ee4b0775fde10d78a,2023-10-17T00:51:42.534Z,2023-10-17T00:51:42.000Z,f95e0f0fd0ec45969b40da2a681114e1,"$GNGGA,005142.000,3556.315153,N,12656.801455,E,4,49,0.45,18.5,M,20.5,M,1.0,*63
$GNRMC,005142.000,A,3556.315153,N,12656.801455,E,5.676,017.49,171023,,,R,V*2A
$GNVTG,017.49,T,,M,5.676,N,10.511,K,D*1B
$GNGSA,A,3,05,07,11,13,15,18,20,29,30,,,,0.78,0.45,0.63,1*0D
$GNGSA,A,3,69,70,71,78,79,80,84,85,86,,,,0.78,0.45,0.63,2*01
$GNGSA,A,3,03,07,08,13,15,26,,,,,,,0.78,0.45,0.63,3*06
$GNGSA,A,3,02,03,04,06,07,08,09,10,13,16,24,27,0.78,0.45,0.63,4*0D
$GNGSA,A,3,03,04,07,,,,,,,,,,0.78,0.45,0.63,5*0E
"
agip2.gcm.collector.plugin.core.contents.persist.mongo.nmea.Nmea,652dda9fe4b0775fde10d894,2023-10-17T00:51:43.504Z,2023-10-17T00:51:43.000Z,f95e0f0fd0ec45969b40da2a681114e1,"$GNGGA,005143.000,3556.316610,N,12656.802037,E,4,51,0.43,18.4,M,20.5,M,1.0,*6C
$GNRMC,005143.000,A,3556.316610,N,12656.802037,E,5.714,017.55,171023,,,R,V*23
$GNVTG,017.55,T,,M,5.714,N,10.582,K,D*19
$GNGSA,A,3,05,07,11,13,15,18,20,29,30,,,,0.77,0.43,0.64,1*03
$GNGSA,A,3,69,70,71,78,79,80,84,85,86,,,,0.77,0.43,0.64,2*0F
$GNGSA,A,3,03,07,08,13,15,26,,,,,,,0.77,0.43,0.64,3*08
$GNGSA,A,3,02,03,04,06,07,08,09,10,13,16,23,24,0.77,0.43,0.64,4*07
$GNGSA,A,3,03,04,07,,,,,,,,,,0.77,0.43,0.64,5*00
"
agip2.gcm.collector.plugin.core.contents.persist.mongo.nmea.Nmea,652ddaa0e4b0775fde10d9b4,2023-10-17T00:51:44.524Z,2023-10-17T00:51:44.000Z,f95e0f0fd0ec45969b40da2a681114e1,"$GNGGA,005144.000,3556.318224,N,12656.802666,E,4,52,0.42,18.4,M,20.5,M,1.0,*66
$GNRMC,005144.000,A,3556.318224,N,12656.802666,E,6.460,017.51,171023,,,R,V*2C
$GNVTG,017.51,T,,M,6.460,N,11.963,K,D*1C
$GNGSA,A,3,05,07,11,13,15,18,20,24,29,30,,,0.77,0.42,0.65,1*05
$GNGSA,A,3,69,70,71,78,79,80,84,85,86,,,,0.77,0.42,0.65,2*0F
$GNGSA,A,3,03,07,08,13,15,26,,,,,,,0.77,0.42,0.65,3*08
$GNGSA,A,3,02,03,04,06,07,08,09,10,13,16,23,24,0.77,0.42,0.65,4*07
$GNGSA,A,3,03,04,07,,,,,,,,,,0.77,0.42,0.65,5*00
"
agip2.gcm.collector.plugin.core.contents.persist.mongo.nmea.Nmea,652ddaa1e4b0775fde10dab6,2023-10-17T00:51:45.504Z,2023-10-17T00:51:45.000Z,f95e0f0fd0ec45969b40da2a681114e1,"$GNGGA,005145.000,3556.320181,N,12656.803467,E,4,50,0.41,18.3,M,20.5,M,1.0,*64
$GNRMC,005145.000,A,3556.320181,N,12656.803467,E,8.491,017.58,171023,,,R,V*21
$GNVTG,017.58,T,,M,8.491,N,15.724,K,D*1C
$GNGSA,A,3,05,11,13,15,18,20,29,30,,,,,0.73,0.41,0.61,1*07
$GNGSA,A,3,69,70,71,78,79,80,84,85,86,,,,0.73,0.41,0.61,2*0C
$GNGSA,A,3,03,07,08,13,15,26,,,,,,,0.73,0.41,0.61,3*0B
$GNGSA,A,3,02,03,04,06,07,08,09,10,13,16,23,24,0.73,0.41,0.61,4*04
$GNGSA,A,3,03,04,07,,,,,,,,,,0.73,0.41,0.61,5*03
"
agip2.gcm.collector.plugin.core.contents.persist.mongo.nmea.Nmea,652ddaa2e4b0775fde10dbe2,2023-10-17T00:51:46.526Z,2023-10-17T00:51:46.000Z,f95e0f0fd0ec45969b40da2a681114e1,"$GNGGA,005146.000,3556.322599,N,12656.804420,E,4,50,0.42,18.2,M,20.5,M,1.0,*6E
$GNRMC,005146.000,A,3556.322599,N,12656.804420,E,9.919,017.61,171023,,,R,V*2F
$GNVTG,017.61,T,,M,9.919,N,18.369,K,D*1A
$GNGSA,A,3,05,11,13,15,18,20,29,30,,,,,0.75,0.42,0.62,1*01
$GNGSA,A,3,69,70,71,78,79,80,84,85,86,,,,0.75,0.42,0.62,2*0A
$GNGSA,A,3,03,07,08,13,15,26,,,,,,,0.75,0.42,0.62,3*0D
$GNGSA,A,3,02,03,04,06,07,08,09,10,13,16,23,24,0.75,0.42,0.62,4*02
$GNGSA,A,3,03,04,07,,,,,,,,,,0.75,0.42,0.62,5*05
"
agip2.gcm.collector.plugin.core.contents.persist.mongo.nmea.Nmea,652ddaa3e4b0775fde10dcf1,2023-10-17T00:51:47.506Z,2023-10-17T00:51:47.000Z,f95e0f0fd0ec45969b40da2a681114e1,"$GNGGA,005147.000,3556.325495,N,12656.805477,E,4,49,0.46,18.1,M,20.5,M,1.0,*69
$GNRMC,005147.000,A,3556.325495,N,12656.805477,E,11.470,017.57,171023,,,R,V*19
$GNVTG,017.57,T,,M,11.470,N,21.240,K,D*24
$GNGSA,A,3,05,11,13,15,18,20,29,30,,,,,0.81,0.46,0.67,1*0B
$GNGSA,A,3,69,70,71,79,80,84,85,86,,,,,0.81,0.46,0.67,2*0F
$GNGSA,A,3,03,07,08,13,15,26,,,,,,,0.81,0.46,0.67,3*07
$GNGSA,A,3,02,03,04,06,07,08,09,10,13,16,23,24,0.81,0.46,0.67,4*08
$GNGSA,A,3,03,04,07,,,,,,,,,,0.81,0.46,0.67,5*0F
"
agip2.gcm.collector.plugin.core.contents.persist.mongo.nmea.Nmea,652ddaa4e4b0775fde10de1a,2023-10-17T00:51:48.546Z,2023-10-17T00:51:48.000Z,f95e0f0fd0ec45969b40da2a681114e1,"$GNGGA,005148.000,3556.328571,N,12656.806684,E,4,49,0.53,17.9,M,20.5,M,1.0,*6E
$GNRMC,005148.000,A,3556.328571,N,12656.806684,E,11.862,017.72,171023,,,R,V*15
$GNVTG,017.72,T,,M,11.862,N,21.967,K,D*22
$GNGSA,A,3,05,11,13,15,18,20,29,30,,,,,0.90,0.53,0.72,1*0B
$GNGSA,A,3,69,70,71,79,80,84,85,86,,,,,0.90,0.53,0.72,2*0F
$GNGSA,A,3,03,07,08,13,15,26,,,,,,,0.90,0.53,0.72,3*07
$GNGSA,A,3,02,03,04,06,07,08,09,10,13,16,23,24,0.90,0.53,0.72,4*08
$GNGSA,A,3,03,04,07,,,,,,,,,,0.90,0.53,0.72,5*0F
"
agip2.gcm.collector.plugin.core.contents.persist.mongo.nmea.Nmea,652ddaa5e4b0775fde10df12,2023-10-17T00:51:49.486Z,2023-10-17T00:51:49.000Z,f95e0f0fd0ec45969b40da2a681114e1,"$GNGGA,005149.000,3556.331720,N,12656.807989,E,4,50,0.46,17.7,M,20.5,M,1.0,*60
$GNRMC,005149.000,A,3556.331720,N,12656.807989,E,12.406,017.94,171023,,,R,V*1C
$GNVTG,017.94,T,,M,12.406,N,22.974,K,D*26
$GNGSA,A,3,05,07,11,13,15,18,20,29,30,,,,0.84,0.46,0.70,1*0F
$GNGSA,A,3,69,70,71,78,79,80,84,85,86,,,,0.84,0.46,0.70,2*03
$GNGSA,A,3,03,07,08,13,15,26,,,,,,,0.84,0.46,0.70,3*04
$GNGSA,A,3,02,03,04,06,07,08,10,13,16,23,24,25,0.84,0.46,0.70,4*05
$GNGSA,A,3,03,04,07,,,,,,,,,,0.84,0.46,0.70,5*0C
"
agip2.gcm.collector.plugin.core.contents.persist.mongo.nmea.Nmea,652ddaa6e4b0775fde10e046,2023-10-17T00:51:50.546Z,2023-10-17T00:51:50.000Z,f95e0f0fd0ec45969b40da2a681114e1,"$GNGGA,005150.000,3556.335154,N,12656.809379,E,4,48,0.53,17.6,M,20.5,M,1.0,*6E
$GNRMC,005150.000,A,3556.335154,N,12656.809379,E,13.569,018.02,171023,,,R,V*17
$GNVTG,018.02,T,,M,13.569,N,25.127,K,D*26
$GNGSA,A,3,05,11,13,15,18,20,29,30,24,,,,0.91,0.53,0.74,1*0A
$GNGSA,A,3,69,70,78,79,80,84,85,86,,,,,0.91,0.53,0.74,2*01
$GNGSA,A,3,03,07,08,13,15,26,,,,,,,0.91,0.53,0.74,3*00
$GNGSA,A,3,02,03,04,06,07,08,09,10,13,16,24,27,0.91,0.53,0.74,4*0B
$GNGSA,A,3,03,04,07,,,,,,,,,,0.91,0.53,0.74,5*08
"
agip2.gcm.collector.plugin.core.contents.persist.mongo.nmea.Nmea,652ddaa7e4b0775fde10e150,2023-10-17T00:51:51.536Z,2023-10-17T00:51:51.000Z,f95e0f0fd0ec45969b40da2a681114e1,"$GNGGA,005151.000,3556.338842,N,12656.810849,E,4,47,0.48,17.4,M,20.5,M,1.0,*6B
$GNRMC,005151.000,A,3556.338842,N,12656.810849,E,14.315,017.68,171023,,,R,V*1C
$GNVTG,017.68,T,,M,14.315,N,26.510,K,D*2C
$GNGSA,A,3,05,11,13,15,18,20,29,30,,,,,0.82,0.48,0.66,1*07
$GNGSA,A,3,69,70,79,80,84,85,86,,,,,,0.82,0.48,0.66,2*05
$GNGSA,A,3,03,07,08,13,15,26,,,,,,,0.82,0.48,0.66,3*0B
$GNGSA,A,3,02,03,04,06,07,08,09,10,13,16,23,24,0.82,0.48,0.66,4*04
$GNGSA,A,3,03,04,07,,,,,,,,,,0.82,0.48,0.66,5*03
"
agip2.gcm.collector.plugin.core.contents.persist.mongo.nmea.Nmea,652ddaa8e4b0775fde10e286,2023-10-17T00:51:52.576Z,2023-10-17T00:51:52.000Z,f95e0f0fd0ec45969b40da2a681114e1,"$GNGGA,005152.000,3556.342738,N,12656.812267,E,4,49,0.53,17.3,M,20.5,M,1.0,*60
$GNRMC,005152.000,A,3556.342738,N,12656.812267,E,15.010,016.81,171023,,,R,V*15
$GNVTG,016.81,T,,M,15.010,N,27.796,K,D*20
$GNGSA,A,3,05,11,13,15,18,20,29,30,,,,,0.89,0.53,0.72,1*03
$GNGSA,A,3,69,70,71,79,80,84,85,86,,,,,0.89,0.53,0.72,2*07
$GNGSA,A,3,03,07,08,13,15,26,,,,,,,0.89,0.53,0.72,3*0F
$GNGSA,A,3,02,03,04,06,07,08,09,10,13,16,23,24,0.89,0.53,0.72,4*00
$GNGSA,A,3,03,04,07,,,,,,,,,,0.89,0.53,0.72,5*07
"
agip2.gcm.collector.plugin.core.contents.persist.mongo.nmea.Nmea,652ddaa9e4b0775fde10e385,2023-10-17T00:51:53.531Z,2023-10-17T00:51:53.000Z,f95e0f0fd0ec45969b40da2a681114e1,"$GNGGA,005153.000,3556.346717,N,12656.813768,E,4,49,0.58,17.2,M,20.5,M,1.0,*69
$GNRMC,005153.000,A,3556.346717,N,12656.813768,E,15.042,016.82,171023,,,R,V*12
$GNVTG,016.82,T,,M,15.042,N,27.856,K,D*27
$GNGSA,A,3,05,13,15,18,20,24,29,30,11,,,,0.92,0.58,0.71,1*07
$GNGSA,A,3,69,70,71,80,84,85,86,,,,,,0.92,0.58,0.71,2*0B
$GNGSA,A,3,03,07,08,13,15,26,,,,,,,0.92,0.58,0.71,3*0D
$GNGSA,A,3,02,03,04,06,07,08,09,10,13,16,23,24,0.92,0.58,0.71,4*02
$GNGSA,A,3,03,04,07,,,,,,,,,,0.92,0.58,0.71,5*05
"
agip2.gcm.collector.plugin.core.contents.persist.mongo.nmea.Nmea,652ddaaae4b0775fde10e4fb,2023-10-17T00:51:54.644Z,2023-10-17T00:51:54.000Z,f95e0f0fd0ec45969b40da2a681114e1,"$GNGGA,005154.000,3556.350658,N,12656.815199,E,4,48,0.55,17.2,M,20.5,M,1.0,*61
$GNRMC,005154.000,A,3556.350658,N,12656.815199,E,14.426,017.15,171023,,,R,V*1E
$GNVTG,017.15,T,,M,14.426,N,26.715,K,D*26
$GNGSA,A,3,05,13,15,18,20,24,29,11,,,,,0.89,0.55,0.70,1*02
$GNGSA,A,3,69,70,71,80,84,85,86,,,,,,0.89,0.55,0.70,2*0D
$GNGSA,A,3,03,07,08,13,15,26,,,,,,,0.89,0.55,0.70,3*0B
$GNGSA,A,3,02,03,04,06,07,08,09,10,13,16,23,24,0.89,0.55,0.70,4*04
$GNGSA,A,3,03,04,07,,,,,,,,,,0.89,0.55,0.70,5*03
"
agip2.gcm.collector.plugin.core.contents.persist.mongo.nmea.Nmea,652ddaabe4b0775fde10e5d4,2023-10-17T00:51:55.586Z,2023-10-17T00:51:55.000Z,f95e0f0fd0ec45969b40da2a681114e1,"$GNGGA,005155.000,3556.354411,N,12656.816636,E,4,49,0.45,17.2,M,20.5,M,1.0,*6A
$GNRMC,005155.000,A,3556.354411,N,12656.816636,E,13.837,017.41,171023,,,R,V*1F
$GNVTG,017.41,T,,M,13.837,N,25.623,K,D*2B
$GNGSA,A,3,05,13,15,18,20,24,29,30,11,,,,0.78,0.45,0.63,1*0C
$GNGSA,A,3,69,70,71,79,80,84,85,86,,,,,0.78,0.45,0.63,2*0E
$GNGSA,A,3,03,07,08,13,15,26,,,,,,,0.78,0.45,0.63,3*06
$GNGSA,A,3,02,03,06,07,08,09,10,13,16,23,24,25,0.78,0.45,0.63,4*0A
$GNGSA,A,3,03,04,07,,,,,,,,,,0.78,0.45,0.63,5*0E
"
agip2.gcm.collector.plugin.core.contents.persist.mongo.nmea.Nmea,652ddaace4b0775fde10e725,2023-10-17T00:51:56.646Z,2023-10-17T00:51:56.000Z,f95e0f0fd0ec45969b40da2a681114e1,"$GNGGA,005156.000,3556.357993,N,12656.817997,E,4,48,0.43,17.2,M,20.5,M,1.0,*6F
$GNRMC,005156.000,A,3556.357993,N,12656.817997,E,13.238,017.33,171023,,,R,V*1D
$GNVTG,017.33,T,,M,13.238,N,24.515,K,D*2C
$GNGSA,A,3,05,11,13,15,18,20,29,30,,,,,0.78,0.43,0.65,1*0A
$GNGSA,A,3,69,70,71,79,80,84,85,86,,,,,0.78,0.43,0.65,2*0E
$GNGSA,A,3,03,07,08,13,15,26,,,,,,,0.78,0.43,0.65,3*06
$GNGSA,A,3,02,03,06,07,08,09,10,13,16,23,24,25,0.78,0.43,0.65,4*0A
$GNGSA,A,3,03,04,07,,,,,,,,,,0.78,0.43,0.65,5*0E
"
agip2.gcm.collector.plugin.core.contents.persist.mongo.nmea.Nmea,652ddaade4b0775fde10e804,2023-10-17T00:51:57.586Z,2023-10-17T00:51:57.000Z,f95e0f0fd0ec45969b40da2a681114e1,"$GNGGA,005157.000,3556.361476,N,12656.819356,E,4,49,0.47,17.2,M,20.5,M,1.0,*61
$GNRMC,005157.000,A,3556.361476,N,12656.819356,E,13.008,017.45,171023,,,R,V*16
$GNVTG,017.45,T,,M,13.008,N,24.089,K,D*2C
$GNGSA,A,3,05,11,13,15,18,20,29,30,,,,,0.84,0.47,0.69,1*01
$GNGSA,A,3,69,70,71,79,80,84,85,86,,,,,0.84,0.47,0.69,2*05
$GNGSA,A,3,03,07,08,13,15,26,,,,,,,0.84,0.47,0.69,3*0D
$GNGSA,A,3,02,03,04,06,07,08,09,10,13,16,23,24,0.84,0.47,0.69,4*02
$GNGSA,A,3,03,04,07,,,,,,,,,,0.84,0.47,0.69,5*05
"
agip2.gcm.collector.plugin.core.contents.persist.mongo.nmea.Nmea,652ddaaee4b0775fde10e949,2023-10-17T00:51:58.626Z,2023-10-17T00:51:58.000Z,f95e0f0fd0ec45969b40da2a681114e1,"$GNGGA,005158.000,3556.364946,N,12656.820714,E,4,50,0.48,17.1,M,20.5,M,1.0,*69
$GNRMC,005158.000,A,3556.364946,N,12656.820714,E,12.927,017.61,171023,,,R,V*19
$GNVTG,017.61,T,,M,12.927,N,23.938,K,D*2B
$GNGSA,A,3,05,11,13,15,18,20,29,30,24,,,,0.87,0.48,0.73,1*00
$GNGSA,A,3,69,70,71,79,80,84,85,86,,,,,0.87,0.48,0.73,2*02
$GNGSA,A,3,03,07,08,13,15,26,,,,,,,0.87,0.48,0.73,3*0A
$GNGSA,A,3,02,03,04,06,07,08,09,10,13,16,23,24,0.87,0.48,0.73,4*05
$GNGSA,A,3,03,04,07,,,,,,,,,,0.87,0.48,0.73,5*02
"
agip2.gcm.collector.plugin.core.contents.persist.mongo.nmea.Nmea,652ddaafe4b0775fde10ea11,2023-10-17T00:51:59.536Z,2023-10-17T00:51:59.000Z,f95e0f0fd0ec45969b40da2a681114e1,"$GNGGA,005159.000,3556.368286,N,12656.822017,E,4,50,0.46,17.1,M,20.5,M,1.0,*6B
$GNRMC,005159.000,A,3556.368286,N,12656.822017,E,12.303,017.50,171023,,,R,V*1B
$GNVTG,017.50,T,,M,12.303,N,22.782,K,D*2B
$GNGSA,A,3,05,11,13,15,18,20,29,24,30,,,,0.82,0.46,0.67,1*0E
$GNGSA,A,3,69,70,71,79,80,84,85,86,,,,,0.82,0.46,0.67,2*0C
$GNGSA,A,3,03,07,08,13,15,26,,,,,,,0.82,0.46,0.67,3*04
$GNGSA,A,3,02,03,04,06,07,08,09,10,13,16,23,24,0.82,0.46,0.67,4*0B
$GNGSA,A,3,03,04,07,,,,,,,,,,0.82,0.46,0.67,5*0C
"
agip2.gcm.collector.plugin.core.contents.persist.mongo.nmea.Nmea,652ddab0e4b0775fde10eb60,2023-10-17T00:52:00.626Z,2023-10-17T00:52:00.000Z,f95e0f0fd0ec45969b40da2a681114e1,"$GNGGA,005200.000,3556.371475,N,12656.823263,E,4,50,0.48,17.1,M,20.5,M,1.0,*68
$GNRMC,005200.000,A,3556.371475,N,12656.823263,E,11.670,017.39,171023,,,R,V*1B
$GNVTG,017.39,T,,M,11.670,N,21.611,K,D*2E
$GNGSA,A,3,05,11,13,15,18,20,24,29,30,,,,0.86,0.48,0.72,1*00
$GNGSA,A,3,69,70,71,78,79,80,84,85,86,,,,0.86,0.48,0.72,2*0D
$GNGSA,A,3,03,07,08,13,15,26,,,,,,,0.86,0.48,0.72,3*0A
$GNGSA,A,3,02,03,04,06,07,08,09,13,16,23,24,27,0.86,0.48,0.72,4*01
$GNGSA,A,3,03,04,07,,,,,,,,,,0.86,0.48,0.72,5*02
"
agip2.gcm.collector.plugin.core.contents.persist.mongo.nmea.Nmea,652ddab1e4b0775fde10ec61,2023-10-17T00:52:01.586Z,2023-10-17T00:52:01.000Z,f95e0f0fd0ec45969b40da2a681114e1,"$GNGGA,005201.000,3556.374479,N,12656.824434,E,4,49,0.50,17.1,M,20.5,M,1.0,*62
$GNRMC,005201.000,A,3556.374479,N,12656.824434,E,11.117,017.48,171023,,,R,V*10
$GNVTG,017.48,T,,M,11.117,N,20.587,K,D*23
$GNGSA,A,3,05,11,13,15,18,20,29,30,,,,,0.89,0.50,0.73,1*01
$GNGSA,A,3,69,70,71,78,79,80,84,85,86,,,,0.89,0.50,0.73,2*0A
$GNGSA,A,3,03,07,08,13,15,26,,,,,,,0.89,0.50,0.73,3*0D
$GNGSA,A,3,02,03,04,06,07,08,09,13,16,23,24,25,0.89,0.50,0.73,4*04
$GNGSA,A,3,03,04,07,,,,,,,,,,0.89,0.50,0.73,5*05
"
agip2.gcm.collector.plugin.core.contents.persist.mongo.nmea.Nmea,652ddab2e4b0775fde10edb7,2023-10-17T00:52:02.636Z,2023-10-17T00:52:02.000Z,f95e0f0fd0ec45969b40da2a681114e1,"$GNGGA,005202.000,3556.377322,N,12656.825516,E,4,49,0.42,17.1,M,20.5,M,1.0,*68
$GNRMC,005202.000,A,3556.377322,N,12656.825516,E,10.359,017.40,171023,,,R,V*18
$GNVTG,017.40,T,,M,10.359,N,19.184,K,D*2F
$GNGSA,A,3,05,11,13,15,18,20,29,30,,,,,0.75,0.42,0.63,1*00
$GNGSA,A,3,69,70,71,78,79,80,84,85,86,,,,0.75,0.42,0.63,2*0B
$GNGSA,A,3,03,07,08,13,15,26,,,,,,,0.75,0.42,0.63,3*0C
$GNGSA,A,3,02,03,04,06,07,08,09,13,16,23,24,25,0.75,0.42,0.63,4*05
$GNGSA,A,3,03,04,07,,,,,,,,,,0.75,0.42,0.63,5*04
"
agip2.gcm.collector.plugin.core.contents.persist.mongo.nmea.Nmea,652ddab3e4b0775fde10ee9f,2023-10-17T00:52:03.596Z,2023-10-17T00:52:03.000Z,f95e0f0fd0ec45969b40da2a681114e1,"$GNGGA,005203.000,3556.380046,N,12656.826428,E,4,50,0.43,17.1,M,20.5,M,1.0,*66
$GNRMC,005203.000,A,3556.380046,N,12656.826428,E,9.894,016.55,171023,,,R,V*28
$GNVTG,016.55,T,,M,9.894,N,18.323,K,D*16
$GNGSA,A,3,05,07,11,13,15,18,20,29,30,,,,0.81,0.43,0.68,1*06
$GNGSA,A,3,69,70,71,78,79,80,84,85,86,,,,0.81,0.43,0.68,2*0A
$GNGSA,A,3,03,07,08,13,15,26,,,,,,,0.81,0.43,0.68,3*0D
$GNGSA,A,3,02,03,04,06,07,08,09,10,13,16,23,24,0.81,0.43,0.68,4*02
$GNGSA,A,3,03,04,07,,,,,,,,,,0.81,0.43,0.68,5*05
"
agip2.gcm.collector.plugin.core.contents.persist.mongo.nmea.Nmea,652ddab4e4b0775fde10efd6,2023-10-17T00:52:04.626Z,2023-10-17T00:52:04.000Z,f95e0f0fd0ec45969b40da2a681114e1,"$GNGGA,005204.000,3556.382585,N,12656.827332,E,4,51,0.47,17.1,M,20.5,M,1.0,*61
$GNRMC,005204.000,A,3556.382585,N,12656.827332,E,9.237,016.18,171023,,,R,V*20
$GNVTG,016.18,T,,M,9.237,N,17.105,K,D*15
$GNGSA,A,3,05,07,11,13,15,18,20,29,30,,,,0.85,0.47,0.70,1*0F
$GNGSA,A,3,69,70,71,78,79,80,84,85,86,,,,0.85,0.47,0.70,2*03
$GNGSA,A,3,03,07,08,13,15,26,,,,,,,0.85,0.47,0.70,3*04
$GNGSA,A,3,02,03,04,06,07,08,09,10,13,16,23,24,0.85,0.47,0.70,4*0B
$GNGSA,A,3,03,04,07,,,,,,,,,,0.85,0.47,0.70,5*0C
"
agip2.gcm.collector.plugin.core.contents.persist.mongo.nmea.Nmea,652ddab5e4b0775fde10f0d0,2023-10-17T00:52:05.593Z,2023-10-17T00:52:05.000Z,f95e0f0fd0ec45969b40da2a681114e1,"$GNGGA,005205.000,3556.385139,N,12656.828286,E,4,50,0.45,17.2,M,20.5,M,1.0,*65
$GNRMC,005205.000,A,3556.385139,N,12656.828286,E,9.745,016.41,171023,,,R,V*28
$GNVTG,016.41,T,,M,9.745,N,18.046,K,D*10
$GNGSA,A,3,05,07,11,13,15,18,20,29,30,,,,0.81,0.45,0.67,1*0F
$GNGSA,A,3,69,70,71,78,79,80,84,85,86,,,,0.81,0.45,0.67,2*03
$GNGSA,A,3,03,07,08,13,15,26,,,,,,,0.81,0.45,0.67,3*04
$GNGSA,A,3,02,03,06,07,08,09,10,13,16,23,24,25,0.81,0.45,0.67,4*08
$GNGSA,A,3,03,04,07,,,,,,,,,,0.81,0.45,0.67,5*0C
"
agip2.gcm.collector.plugin.core.contents.persist.mongo.nmea.Nmea,652ddab6e4b0775fde10f222,2023-10-17T00:52:06.661Z,2023-10-17T00:52:06.000Z,f95e0f0fd0ec45969b40da2a681114e1,"$GNGGA,005206.000,3556.387633,N,12656.829367,E,4,50,0.44,17.2,M,20.5,M,1.0,*67
$GNRMC,005206.000,A,3556.387633,N,12656.829367,E,9.396,018.17,171023,,,R,V*2C
$GNVTG,018.17,T,,M,9.396,N,17.400,K,D*1E
$GNGSA,A,3,05,07,13,15,18,20,29,30,11,,,,0.79,0.44,0.65,1*0B
$GNGSA,A,3,69,70,71,78,79,80,84,85,86,,,,0.79,0.44,0.65,2*07
$GNGSA,A,3,03,07,08,13,15,26,,,,,,,0.79,0.44,0.65,3*00
$GNGSA,A,3,02,03,06,07,08,09,10,13,16,23,24,25,0.79,0.44,0.65,4*0C
$GNGSA,A,3,03,04,07,,,,,,,,,,0.79,0.44,0.65,5*08
"
agip2.gcm.collector.plugin.core.contents.persist.mongo.nmea.Nmea,652ddab7e4b0775fde10f2fe,2023-10-17T00:52:07.593Z,2023-10-17T00:52:07.000Z,f95e0f0fd0ec45969b40da2a681114e1,"$GNGGA,005207.000,3556.389831,N,12656.831052,E,4,50,0.43,17.2,M,20.5,M,1.0,*6F
$GNRMC,005207.000,A,3556.389831,N,12656.831052,E,9.347,026.38,171023,,,R,V*2F
$GNVTG,026.38,T,,M,9.347,N,17.310,K,D*14
$GNGSA,A,3,05,07,13,15,18,20,29,30,11,24,,,0.75,0.43,0.62,1*01
$GNGSA,A,3,69,70,71,78,79,80,84,85,86,,,,0.75,0.43,0.62,2*0B
$GNGSA,A,3,03,07,08,13,15,26,,,,,,,0.75,0.43,0.62,3*0C
$GNGSA,A,3,02,03,06,07,08,09,10,13,16,24,25,27,0.75,0.43,0.62,4*04
$GNGSA,A,3,03,04,07,,,,,,,,,,0.75,0.43,0.62,5*04
"
agip2.gcm.collector.plugin.core.contents.persist.mongo.nmea.Nmea,652ddab8e4b0775fde10f42d,2023-10-17T00:52:08.623Z,2023-10-17T00:52:08.000Z,f95e0f0fd0ec45969b40da2a681114e1,"$GNGGA,005208.000,3556.391416,N,12656.833585,E,4,50,0.46,17.2,M,20.5,M,1.0,*68
$GNRMC,005208.000,A,3556.391416,N,12656.833585,E,9.471,041.01,171023,,,R,V*24
$GNVTG,041.01,T,,M,9.471,N,17.540,K,D*1E
$GNGSA,A,3,05,07,13,15,18,20,29,30,24,,,,0.80,0.46,0.66,1*0A
$GNGSA,A,3,69,70,71,78,79,80,84,85,86,,,,0.80,0.46,0.66,2*00
$GNGSA,A,3,03,07,08,13,15,26,,,,,,,0.80,0.46,0.66,3*07
$GNGSA,A,3,02,03,06,07,08,09,10,13,16,23,24,25,0.80,0.46,0.66,4*0B
$GNGSA,A,3,04,07,03,,,,,,,,,,0.80,0.46,0.66,5*0F
"
agip2.gcm.collector.plugin.core.contents.persist.mongo.nmea.Nmea,652ddab9e4b0775fde10f4ff,2023-10-17T00:52:09.523Z,2023-10-17T00:52:09.000Z,f95e0f0fd0ec45969b40da2a681114e1,"$GNGGA,005209.000,3556.392246,N,12656.836635,E,4,50,0.48,17.1,M,20.5,M,1.0,*69
$GNRMC,005209.000,A,3556.392246,N,12656.836635,E,9.456,057.90,171023,,,R,V*22
$GNVTG,057.90,T,,M,9.456,N,17.510,K,D*11
$GNGSA,A,3,05,07,13,15,18,20,29,30,11,24,,,0.79,0.48,0.63,1*07
$GNGSA,A,3,69,70,71,78,79,80,84,85,86,,,,0.79,0.48,0.63,2*0D
$GNGSA,A,3,03,07,08,13,15,26,,,,,,,0.79,0.48,0.63,3*0A
$GNGSA,A,3,02,03,06,07,08,09,10,13,16,23,24,25,0.79,0.48,0.63,4*06
$GNGSA,A,3,04,07,03,,,,,,,,,,0.79,0.48,0.63,5*02
"
agip2.gcm.collector.plugin.core.contents.persist.mongo.nmea.Nmea,652ddabae4b0775fde10f635,2023-10-17T00:52:10.583Z,2023-10-17T00:52:10.000Z,f95e0f0fd0ec45969b40da2a681114e1,"$GNGGA,005210.000,3556.392278,N,12656.839869,E,4,47,0.52,17.0,M,20.5,M,1.0,*68
$GNRMC,005210.000,A,3556.392278,N,12656.839869,E,9.397,074.98,171023,,,R,V*2C
$GNVTG,074.98,T,,M,9.397,N,17.401,K,D*13
$GNGSA,A,3,05,07,11,13,15,18,20,29,30,24,,,0.91,0.52,0.74,1*0C
$GNGSA,A,3,69,70,71,78,79,80,84,85,86,,,,0.91,0.52,0.74,2*06
$GNGSA,A,3,03,07,08,13,15,26,,,,,,,0.91,0.52,0.74,3*01
$GNGSA,A,3,02,03,06,07,08,09,13,23,24,25,27,30,0.91,0.52,0.74,4*0D
$GNGSA,A,3,04,07,03,,,,,,,,,,0.91,0.52,0.74,5*09
"
agip2.gcm.collector.plugin.core.contents.persist.mongo.nmea.Nmea,652ddabbe4b0775fde10f735,2023-10-17T00:52:11.543Z,2023-10-17T00:52:11.000Z,f95e0f0fd0ec45969b40da2a681114e1,"$GNGGA,005211.000,3556.391861,N,12656.843001,E,4,47,0.42,17.1,M,20.5,M,1.0,*63
$GNRMC,005211.000,A,3556.391861,N,12656.843001,E,9.142,087.72,171023,,,R,V*25
$GNVTG,087.72,T,,M,9.142,N,16.929,K,D*17
$GNGSA,A,3,05,07,11,13,15,18,20,29,30,,,,0.79,0.42,0.67,1*0F
$GNGSA,A,3,69,70,71,78,79,80,84,85,86,,,,0.79,0.42,0.67,2*03
$GNGSA,A,3,03,07,08,13,15,26,,,,,,,0.79,0.42,0.67,3*04
$GNGSA,A,3,02,03,07,08,09,13,16,23,24,25,27,30,0.79,0.42,0.67,4*09
$GNGSA,A,3,04,07,03,,,,,,,,,,0.79,0.42,0.67,5*0C
"
agip2.gcm.collector.plugin.core.contents.persist.mongo.nmea.Nmea,652ddabce4b0775fde10f865,2023-10-17T00:52:12.563Z,2023-10-17T00:52:12.000Z,f95e0f0fd0ec45969b40da2a681114e1,"$GNGGA,005212.000,3556.391328,N,12656.846009,E,4,48,0.47,17.1,M,20.5,M,1.0,*61
$GNRMC,005212.000,A,3556.391328,N,12656.846009,E,8.766,095.87,171023,,,R,V*25
$GNVTG,095.87,T,,M,8.766,N,16.234,K,D*18
$GNGSA,A,3,05,07,11,13,15,18,20,29,30,24,,,0.85,0.47,0.71,1*08
$GNGSA,A,3,69,70,71,78,79,80,84,85,86,,,,0.85,0.47,0.71,2*02
$GNGSA,A,3,03,07,08,13,15,26,,,,,,,0.85,0.47,0.71,3*05
$GNGSA,A,3,02,04,06,07,08,09,13,23,25,27,28,30,0.85,0.47,0.71,4*02
$GNGSA,A,3,04,07,03,,,,,,,,,,0.85,0.47,0.71,5*0D
"
agip2.gcm.collector.plugin.core.contents.persist.mongo.nmea.Nmea,652ddabde4b0775fde10f960,2023-10-17T00:52:13.553Z,2023-10-17T00:52:13.000Z,f95e0f0fd0ec45969b40da2a681114e1,"$GNGGA,005213.000,3556.390708,N,12656.848878,E,4,45,0.47,17.0,M,20.5,M,1.0,*6B
$GNRMC,005213.000,A,3556.390708,N,12656.848878,E,8.764,100.34,171023,,,R,V*24
$GNVTG,100.34,T,,M,8.764,N,16.230,K,D*1B
$GNGSA,A,3,05,11,13,15,18,20,29,30,,,,,0.84,0.47,0.70,1*09
$GNGSA,A,3,69,70,71,78,79,80,84,85,86,,,,0.84,0.47,0.70,2*02
$GNGSA,A,3,03,07,08,13,15,26,,,,,,,0.84,0.47,0.70,3*05
$GNGSA,A,3,02,04,08,09,13,23,25,27,28,30,32,33,0.84,0.47,0.70,4*02
$GNGSA,A,3,03,04,07,,,,,,,,,,0.84,0.47,0.70,5*0D
"
agip2.gcm.collector.plugin.core.contents.persist.mongo.nmea.Nmea,652ddabee4b0775fde10fab9,2023-10-17T00:52:14.623Z,2023-10-17T00:52:14.000Z,f95e0f0fd0ec45969b40da2a681114e1,"$GNGGA,005214.000,3556.389975,N,12656.851835,E,4,48,0.43,17.0,M,20.5,M,1.0,*68
$GNRMC,005214.000,A,3556.389975,N,12656.851835,E,9.372,103.95,171023,,,R,V*24
$GNVTG,103.95,T,,M,9.372,N,17.356,K,D*11
$GNGSA,A,3,05,07,11,13,15,18,20,29,30,,,,0.82,0.43,0.69,1*04
$GNGSA,A,3,69,70,71,78,79,80,84,85,86,,,,0.82,0.43,0.69,2*08
$GNGSA,A,3,03,07,08,13,15,26,,,,,,,0.82,0.43,0.69,3*0F
$GNGSA,A,3,02,04,06,08,09,13,16,23,25,28,30,32,0.82,0.43,0.69,4*0C
$GNGSA,A,3,03,04,07,,,,,,,,,,0.82,0.43,0.69,5*07
"
agip2.gcm.collector.plugin.core.contents.persist.mongo.nmea.Nmea,652ddabfe4b0775fde10fb8d,2023-10-17T00:52:15.563Z,2023-10-17T00:52:15.000Z,f95e0f0fd0ec45969b40da2a681114e1,"$GNGGA,005215.000,3556.389122,N,12656.855015,E,4,48,0.46,17.0,M,20.6,M,1.0,*6B
$GNRMC,005215.000,A,3556.389122,N,12656.855015,E,10.321,106.45,171023,,,R,V*17
$GNVTG,106.45,T,,M,10.321,N,19.113,K,D*2A
$GNGSA,A,3,05,07,11,13,15,18,20,29,30,,,,0.84,0.46,0.70,1*0F
$GNGSA,A,3,69,70,71,78,79,80,84,85,86,,,,0.84,0.46,0.70,2*03
$GNGSA,A,3,03,07,08,13,15,26,,,,,,,0.84,0.46,0.70,3*04
$GNGSA,A,3,02,04,06,08,09,13,16,23,25,27,28,30,0.84,0.46,0.70,4*03
$GNGSA,A,3,03,04,07,,,,,,,,,,0.84,0.46,0.70,5*0C
"
agip2.gcm.collector.plugin.core.contents.persist.mongo.nmea.Nmea,652ddac0e4b0775fde10fcb9,2023-10-17T00:52:16.591Z,2023-10-17T00:52:16.000Z,f95e0f0fd0ec45969b40da2a681114e1,"$GNGGA,005216.000,3556.388090,N,12656.858465,E,4,45,0.48,17.1,M,20.6,M,1.0,*6D
$GNRMC,005216.000,A,3556.388090,N,12656.858465,E,11.160,109.06,171023,,,R,V*1D
$GNVTG,109.06,T,,M,11.160,N,20.666,K,D*2B
$GNGSA,A,3,05,11,13,18,20,29,30,,,,,,0.88,0.48,0.73,1*0D
$GNGSA,A,3,69,70,71,78,79,80,84,85,86,,,,0.88,0.48,0.73,2*02
$GNGSA,A,3,03,07,08,13,15,26,,,,,,,0.88,0.48,0.73,3*05
$GNGSA,A,3,04,06,08,09,13,16,23,25,27,28,30,32,0.88,0.48,0.73,4*01
$GNGSA,A,3,03,04,07,,,,,,,,,,0.88,0.48,0.73,5*0D
"
agip2.gcm.collector.plugin.core.contents.persist.mongo.nmea.Nmea,652ddac1e4b0775fde10fdad,2023-10-17T00:52:17.551Z,2023-10-17T00:52:17.000Z,f95e0f0fd0ec45969b40da2a681114e1,"$GNGGA,005217.000,3556.386679,N,12656.861942,E,4,46,0.49,17.1,M,20.6,M,1.0,*63
$GNRMC,005217.000,A,3556.386679,N,12656.861942,E,11.369,114.00,171023,,,R,V*10
$GNVTG,114.00,T,,M,11.369,N,21.054,K,D*2C
$GNGSA,A,3,05,11,13,15,18,20,29,30,,,,,0.91,0.49,0.76,1*05
$GNGSA,A,3,69,70,71,78,79,80,84,85,86,,,,0.91,0.49,0.76,2*0E
$GNGSA,A,3,03,07,08,13,15,26,,,,,,,0.91,0.49,0.76,3*09
$GNGSA,A,3,03,04,06,08,09,13,23,25,27,28,30,32,0.91,0.49,0.76,4*09
$GNGSA,A,3,03,04,07,,,,,,,,,,0.91,0.49,0.76,5*01
"
agip2.gcm.collector.plugin.core.contents.persist.mongo.nmea.Nmea,652ddac2e4b0775fde10fee5,2023-10-17T00:52:18.601Z,2023-10-17T00:52:18.000Z,f95e0f0fd0ec45969b40da2a681114e1,"$GNGGA,005218.000,3556.385000,N,12656.865216,E,4,45,0.48,17.0,M,20.6,M,1.0,*6A
$GNRMC,005218.000,A,3556.385000,N,12656.865216,E,11.219,119.24,171023,,,R,V*17
$GNVTG,119.24,T,,M,11.219,N,20.776,K,D*27
$GNGSA,A,3,05,07,11,13,18,20,29,30,,,,,0.87,0.48,0.73,1*05
$GNGSA,A,3,69,70,71,78,80,84,85,86,,,,,0.87,0.48,0.73,2*03
$GNGSA,A,3,03,07,08,13,15,26,,,,,,,0.87,0.48,0.73,3*0A
$GNGSA,A,3,03,04,06,08,09,13,16,23,25,27,28,30,0.87,0.48,0.73,4*0C
$GNGSA,A,3,03,04,07,,,,,,,,,,0.87,0.48,0.73,5*02
"
agip2.gcm.collector.plugin.core.contents.persist.mongo.nmea.Nmea,652ddac3e4b0775fde10ffd7,2023-10-17T00:52:19.541Z,2023-10-17T00:52:19.000Z,f95e0f0fd0ec45969b40da2a681114e1,"$GNGGA,005219.000,3556.383406,N,12656.868392,E,4,47,0.43,17.0,M,20.6,M,1.0,*66
$GNRMC,005219.000,A,3556.383406,N,12656.868392,E,10.326,120.34,171023,,,R,V*15
$GNVTG,120.34,T,,M,10.326,N,19.123,K,D*2C
$GNGSA,A,3,05,07,11,13,15,18,20,29,30,,,,0.85,0.43,0.74,1*0F
$GNGSA,A,3,69,70,71,78,79,80,84,85,86,,,,0.85,0.43,0.74,2*03
$GNGSA,A,3,03,07,08,13,15,26,,,,,,,0.85,0.43,0.74,3*04
$GNGSA,A,3,03,04,06,08,09,13,16,24,25,27,28,30,0.85,0.43,0.74,4*05
$GNGSA,A,3,03,04,07,,,,,,,,,,0.85,0.43,0.74,5*0C
"
agip2.gcm.collector.plugin.core.contents.persist.mongo.nmea.Nmea,652ddac4e4b0775fde1100f1,2023-10-17T00:52:20.571Z,2023-10-17T00:52:20.000Z,f95e0f0fd0ec45969b40da2a681114e1,"$GNGGA,005220.000,3556.382285,N,12656.871353,E,4,46,0.45,17.0,M,20.6,M,1.0,*62
$GNRMC,005220.000,A,3556.382285,N,12656.871353,E,9.166,117.16,171023,,,R,V*2C
$GNVTG,117.16,T,,M,9.166,N,16.975,K,D*12
$GNGSA,A,3,05,07,11,13,15,18,20,29,30,,,,0.85,0.45,0.72,1*0F
$GNGSA,A,3,69,70,71,78,79,80,84,85,86,,,,0.85,0.45,0.72,2*03
$GNGSA,A,3,03,07,08,13,15,26,,,,,,,0.85,0.45,0.72,3*04
$GNGSA,A,3,03,04,08,09,13,16,24,25,27,28,30,32,0.85,0.45,0.72,4*02
$GNGSA,A,3,03,04,07,,,,,,,,,,0.85,0.45,0.72,5*0C
"
agip2.gcm.collector.plugin.core.contents.persist.mongo.nmea.Nmea,652ddac5e4b0775fde1101fa,2023-10-17T00:52:21.561Z,2023-10-17T00:52:21.000Z,f95e0f0fd0ec45969b40da2a681114e1,"$GNGGA,005221.000,3556.381533,N,12656.874014,E,4,46,0.48,17.0,M,20.6,M,1.0,*62
$GNRMC,005221.000,A,3556.381533,N,12656.874014,E,7.156,113.31,171023,,,R,V*2D
$GNVTG,113.31,T,,M,7.156,N,13.251,K,D*16
$GNGSA,A,3,05,07,11,13,15,18,20,29,30,,,,0.94,0.48,0.80,1*0F
$GNGSA,A,3,69,70,71,78,79,80,84,85,86,,,,0.94,0.48,0.80,2*03
$GNGSA,A,3,03,07,08,13,15,26,,,,,,,0.94,0.48,0.80,3*04
$GNGSA,A,3,03,04,06,08,09,13,24,25,27,28,30,32,0.94,0.48,0.80,4*03
$GNGSA,A,3,03,04,07,,,,,,,,,,0.94,0.48,0.80,5*0C
"
agip2.gcm.collector.plugin.core.contents.persist.mongo.nmea.Nmea,652ddac6e4b0775fde110308,2023-10-17T00:52:22.551Z,2023-10-17T00:52:22.000Z,f95e0f0fd0ec45969b40da2a681114e1,"$GNGGA,005222.000,3556.381071,N,12656.876054,E,4,46,0.47,17.0,M,20.6,M,1.0,*6B
$GNRMC,005222.000,A,3556.381071,N,12656.876054,E,5.369,110.22,171023,,,R,V*26
$GNVTG,110.22,T,,M,5.369,N,9.942,K,D*29
$GNGSA,A,3,05,07,11,13,15,18,20,29,30,,,,0.93,0.47,0.79,1*01
$GNGSA,A,3,69,70,71,78,79,80,84,85,86,,,,0.93,0.47,0.79,2*0D
$GNGSA,A,3,03,07,08,13,15,26,,,,,,,0.93,0.47,0.79,3*0A
$GNGSA,A,3,03,04,06,08,09,13,16,24,25,27,28,30,0.93,0.47,0.79,4*0B
$GNGSA,A,3,03,04,07,,,,,,,,,,0.93,0.47,0.79,5*02
"
agip2.gcm.collector.plugin.core.contents.persist.mongo.nmea.Nmea,652ddac7e4b0775fde110407,2023-10-17T00:52:23.511Z,2023-10-17T00:52:23.000Z,f95e0f0fd0ec45969b40da2a681114e1,"$GNGGA,005223.000,3556.380764,N,12656.877312,E,4,47,0.46,17.0,M,20.6,M,1.0,*68
$GNRMC,005223.000,A,3556.380764,N,12656.877312,E,2.387,109.00,171023,,,R,V*2A
$GNVTG,109.00,T,,M,2.387,N,4.420,K,D*22
$GNGSA,A,3,05,11,13,15,18,20,29,30,,,,,0.87,0.46,0.74,1*0F
$GNGSA,A,3,69,70,71,78,79,80,84,85,86,,,,0.87,0.46,0.74,2*04
$GNGSA,A,3,03,07,08,13,15,26,,,,,,,0.87,0.46,0.74,3*03
$GNGSA,A,3,03,04,06,08,09,10,13,16,23,24,25,27,0.87,0.46,0.74,4*0B
$GNGSA,A,3,03,04,07,,,,,,,,,,0.87,0.46,0.74,5*0B
"
agip2.gcm.collector.plugin.core.contents.persist.mongo.nmea.Nmea,652ddac8e4b0775fde110541,2023-10-17T00:52:24.581Z,2023-10-17T00:52:24.000Z,f95e0f0fd0ec45969b40da2a681114e1,"$GNGGA,005224.000,3556.380686,N,12656.877696,E,4,46,0.49,17.0,M,20.6,M,1.0,*65
$GNRMC,005224.000,A,3556.380686,N,12656.877696,E,0.378,108.58,171023,,,R,V*27
$GNVTG,108.58,T,,M,0.378,N,0.699,K,D*28
$GNGSA,A,3,05,11,13,15,18,20,29,30,,,,,0.97,0.49,0.83,1*09
$GNGSA,A,3,69,70,71,78,79,80,84,85,86,,,,0.97,0.49,0.83,2*02
$GNGSA,A,3,03,07,08,13,15,26,,,,,,,0.97,0.49,0.83,3*05
$GNGSA,A,3,03,04,06,08,09,13,16,23,24,25,27,28,0.97,0.49,0.83,4*06
$GNGSA,A,3,03,04,07,,,,,,,,,,0.97,0.49,0.83,5*0D
"
agip2.gcm.collector.plugin.core.contents.persist.mongo.nmea.Nmea,652ddac9e4b0775fde110620,2023-10-17T00:52:25.531Z,2023-10-17T00:52:25.000Z,f95e0f0fd0ec45969b40da2a681114e1,"$GNGGA,005225.000,3556.380681,N,12656.877710,E,4,46,0.47,17.0,M,20.6,M,1.0,*62
$GNRMC,005225.000,A,3556.380681,N,12656.877710,E,0.027,108.54,171023,,,R,V*2B
$GNVTG,108.54,T,,M,0.027,N,0.050,K,D*2E
$GNGSA,A,3,05,11,13,15,18,20,29,30,,,,,0.90,0.47,0.77,1*0B
$GNGSA,A,3,69,70,71,78,79,80,84,85,86,,,,0.90,0.47,0.77,2*00
$GNGSA,A,3,03,07,08,13,15,26,,,,,,,0.90,0.47,0.77,3*07
$GNGSA,A,3,03,04,06,08,09,13,16,23,24,25,27,28,0.90,0.47,0.77,4*04
$GNGSA,A,3,03,04,07,,,,,,,,,,0.90,0.47,0.77,5*0F
"
agip2.gcm.collector.plugin.core.contents.persist.mongo.nmea.Nmea,652ddacae4b0775fde110756,2023-10-17T00:52:26.581Z,2023-10-17T00:52:26.000Z,f95e0f0fd0ec45969b40da2a681114e1,"$GNGGA,005226.000,3556.380684,N,12656.877700,E,4,46,0.48,17.0,M,20.6,M,1.0,*6A
$GNRMC,005226.000,A,3556.380684,N,12656.877700,E,0.028,108.54,171023,,,R,V*23
$GNVTG,108.54,T,,M,0.028,N,0.051,K,D*20
$GNGSA,A,3,05,11,13,15,18,20,29,30,,,,,0.93,0.48,0.80,1*0F
$GNGSA,A,3,69,70,71,78,79,80,84,85,86,,,,0.93,0.48,0.80,2*04
$GNGSA,A,3,03,07,08,13,15,26,,,,,,,0.93,0.48,0.80,3*03
$GNGSA,A,3,03,04,06,07,08,09,13,16,23,24,25,27,0.93,0.48,0.80,4*0D
$GNGSA,A,3,03,04,07,,,,,,,,,,0.93,0.48,0.80,5*0B
"
agip2.gcm.collector.plugin.core.contents.persist.mongo.nmea.Nmea,652ddacbe4b0775fde11084a,2023-10-17T00:52:27.551Z,2023-10-17T00:52:27.000Z,f95e0f0fd0ec45969b40da2a681114e1,"$GNGGA,005227.000,3556.380682,N,12656.877696,E,4,46,0.47,17.0,M,20.6,M,1.0,*6C
$GNRMC,005227.000,A,3556.380682,N,12656.877696,E,0.012,108.55,171023,,,R,V*22
$GNVTG,108.55,T,,M,0.012,N,0.022,K,D*2C
$GNGSA,A,3,05,11,13,15,18,20,29,30,,,,,0.89,0.47,0.75,1*01
$GNGSA,A,3,69,70,71,78,79,80,84,85,86,,,,0.89,0.47,0.75,2*0A
$GNGSA,A,3,03,07,08,13,15,26,,,,,,,0.89,0.47,0.75,3*0D
$GNGSA,A,3,03,04,06,07,08,09,13,16,23,24,25,27,0.89,0.47,0.75,4*03
$GNGSA,A,3,03,04,07,,,,,,,,,,0.89,0.47,0.75,5*05
"
agip2.gcm.collector.plugin.core.contents.persist.mongo.nmea.Nmea,652ddacce4b0775fde110992,2023-10-17T00:52:28.611Z,2023-10-17T00:52:28.000Z,f95e0f0fd0ec45969b40da2a681114e1,"$GNGGA,005228.000,3556.380682,N,12656.877695,E,4,46,0.49,17.0,M,20.6,M,1.0,*6E
$GNRMC,005228.000,A,3556.380682,N,12656.877695,E,0.017,108.55,171023,,,R,V*2B
$GNVTG,108.55,T,,M,0.017,N,0.032,K,D*28
$GNGSA,A,3,05,11,13,15,18,20,29,30,,,,,0.95,0.49,0.81,1*09
$GNGSA,A,3,69,70,71,78,79,80,84,85,86,,,,0.95,0.49,0.81,2*02
$GNGSA,A,3,03,07,08,13,15,26,,,,,,,0.95,0.49,0.81,3*05
$GNGSA,A,3,03,04,06,07,08,09,13,16,23,24,25,27,0.95,0.49,0.81,4*0B
$GNGSA,A,3,03,04,07,,,,,,,,,,0.95,0.49,0.81,5*0D
"
agip2.gcm.collector.plugin.core.contents.persist.mongo.nmea.Nmea,652ddacde4b0775fde110a6a,2023-10-17T00:52:29.551Z,2023-10-17T00:52:29.000Z,f95e0f0fd0ec45969b40da2a681114e1,"$GNGGA,005229.000,3556.380683,N,12656.877695,E,4,46,0.48,17.0,M,20.6,M,1.0,*6F
$GNRMC,005229.000,A,3556.380683,N,12656.877695,E,0.023,108.56,171023,,,R,V*2F
$GNVTG,108.56,T,,M,0.023,N,0.043,K,D*2A
$GNGSA,A,3,05,11,13,15,18,20,29,30,,,,,0.94,0.48,0.80,1*08
$GNGSA,A,3,69,70,71,78,79,80,84,85,86,,,,0.94,0.48,0.80,2*03
$GNGSA,A,3,03,07,08,13,15,26,,,,,,,0.94,0.48,0.80,3*04
$GNGSA,A,3,03,04,06,07,08,09,13,16,23,24,25,27,0.94,0.48,0.80,4*0A
$GNGSA,A,3,03,04,07,,,,,,,,,,0.94,0.48,0.80,5*0C
"
agip2.gcm.collector.plugin.core.contents.persist.mongo.nmea.Nmea,652ddacee4b0775fde110b96,2023-10-17T00:52:30.581Z,2023-10-17T00:52:30.000Z,f95e0f0fd0ec45969b40da2a681114e1,"$GNGGA,005230.000,3556.380681,N,12656.877694,E,4,47,0.50,17.0,M,20.6,M,1.0,*6C
$GNRMC,005230.000,A,3556.380681,N,12656.877694,E,0.019,108.56,171023,,,R,V*2D
$GNVTG,108.56,T,,M,0.019,N,0.035,K,D*22
$GNGSA,A,3,05,11,13,15,18,20,29,30,24,,,,0.96,0.50,0.83,1*06
$GNGSA,A,3,69,70,71,78,79,80,84,85,86,,,,0.96,0.50,0.83,2*0B
$GNGSA,A,3,03,07,08,13,15,26,,,,,,,0.96,0.50,0.83,3*0C
$GNGSA,A,3,03,04,06,07,08,09,13,16,23,24,25,27,0.96,0.50,0.83,4*02
$GNGSA,A,3,03,04,07,,,,,,,,,,0.96,0.50,0.83,5*04
"
agip2.gcm.collector.plugin.core.contents.persist.mongo.nmea.Nmea,652ddacfe4b0775fde110c8e,2023-10-17T00:52:31.541Z,2023-10-17T00:52:31.000Z,f95e0f0fd0ec45969b40da2a681114e1,"$GNGGA,005231.000,3556.380681,N,12656.877695,E,4,47,0.48,17.0,M,20.6,M,1.0,*65
$GNRMC,005231.000,A,3556.380681,N,12656.877695,E,0.022,108.57,171023,,,R,V*24
$GNVTG,108.57,T,,M,0.022,N,0.041,K,D*28
$GNGSA,A,3,05,11,13,15,18,20,29,30,24,,,,0.93,0.48,0.80,1*09
$GNGSA,A,3,69,70,71,78,79,80,84,85,86,,,,0.93,0.48,0.80,2*04
$GNGSA,A,3,03,07,08,13,15,26,,,,,,,0.93,0.48,0.80,3*03
$GNGSA,A,3,03,04,06,07,08,09,13,16,23,24,25,27,0.93,0.48,0.80,4*0D
$GNGSA,A,3,03,04,07,,,,,,,,,,0.93,0.48,0.80,5*0B
"
agip2.gcm.collector.plugin.core.contents.persist.mongo.nmea.Nmea,652ddad0e4b0775fde110dc5,2023-10-17T00:52:32.591Z,2023-10-17T00:52:32.000Z,f95e0f0fd0ec45969b40da2a681114e1,"$GNGGA,005232.000,3556.380681,N,12656.877697,E,4,47,0.51,17.0,M,20.6,M,1.0,*6C
$GNRMC,005232.000,A,3556.380681,N,12656.877697,E,0.022,108.57,171023,,,R,V*25
$GNVTG,108.57,T,,M,0.022,N,0.041,K,D*28
$GNGSA,A,3,05,11,13,15,18,20,29,30,24,,,,0.98,0.51,0.84,1*0E
$GNGSA,A,3,69,70,71,78,79,80,84,85,86,,,,0.98,0.51,0.84,2*03
$GNGSA,A,3,03,07,08,13,15,26,,,,,,,0.98,0.51,0.84,3*04
$GNGSA,A,3,03,04,06,07,08,09,13,16,23,24,25,27,0.98,0.51,0.84,4*0A
$GNGSA,A,3,03,04,07,,,,,,,,,,0.98,0.51,0.84,5*0C
"
agip2.gcm.collector.plugin.core.contents.persist.mongo.nmea.Nmea,652ddad1e4b0775fde110ebd,2023-10-17T00:52:33.561Z,2023-10-17T00:52:33.000Z,f95e0f0fd0ec45969b40da2a681114e1,"$GNGGA,005233.000,3556.380683,N,12656.877699,E,4,47,0.46,17.0,M,20.6,M,1.0,*67
$GNRMC,005233.000,A,3556.380683,N,12656.877699,E,0.015,108.57,171023,,,R,V*2C
$GNVTG,108.57,T,,M,0.015,N,0.028,K,D*23
$GNGSA,A,3,05,11,13,15,18,20,29,30,24,,,,0.88,0.46,0.75,1*07
$GNGSA,A,3,69,70,71,78,79,80,84,85,86,,,,0.88,0.46,0.75,2*0A
$GNGSA,A,3,03,07,08,13,15,26,,,,,,,0.88,0.46,0.75,3*0D
$GNGSA,A,3,03,04,06,07,08,09,13,16,23,24,25,27,0.88,0.46,0.75,4*03
$GNGSA,A,3,03,04,07,,,,,,,,,,0.88,0.46,0.75,5*05
"
agip2.gcm.collector.plugin.core.contents.persist.mongo.nmea.Nmea,652ddad2e4b0775fde110fe7,2023-10-17T00:52:34.601Z,2023-10-17T00:52:34.000Z,f95e0f0fd0ec45969b40da2a681114e1,"$GNGGA,005234.000,3556.380684,N,12656.877700,E,4,47,0.47,17.0,M,20.6,M,1.0,*67
$GNRMC,005234.000,A,3556.380684,N,12656.877700,E,0.017,108.56,171023,,,R,V*2E
$GNVTG,108.56,T,,M,0.017,N,0.031,K,D*28
$GNGSA,A,3,05,11,13,15,18,20,29,30,24,,,,0.93,0.47,0.80,1*06
$GNGSA,A,3,69,70,71,78,79,80,84,85,86,,,,0.93,0.47,0.80,2*0B
