_class,_id,collectedDate,date,deviceToken,raw
agip2.gcm.collector.plugin.core.contents.persist.mongo.nmea.Nmea,652dce80e4b0775fde043322,2023-10-17T00:00:00.616Z,2023-10-17T00:00:00.000Z,f95e0f0fd0ec45969b40da2a681114e1,"$GNGGA,000000.000,3557.515627,N,12658.620233,E,4,48,0.47,22.1,M,20.6,M,1.0,*6A
$GNRMC,000000.000,A,3557.515627,N,12658.620233,E,0.002,268.59,171023,,,R,V*25
$GNVTG,268.59,T,,M,0.002,N,0.004,K,D*20
$GNGSA,A,3,05,06,07,11,13,15,20,29,30,,,,0.86,0.47,0.71,1*02
$GNGSA,A,3,68,69,70,83,84,85,,,,,,,0.86,0.47,0.71,2*05
$GNGSA,A,3,03,07,08,13,15,26,34,,,,,,0.86,0.47,0.71,3*01
$GNGSA,A,3,02,03,04,05,06,07,08,10,13,16,24,25,0.86,0.47,0.71,4*03
$GNGSA,A,3,03,04,07,,,,,,,,,,0.86,0.47,0.71,5*0E
"
agip2.gcm.collector.plugin.core.contents.persist.mongo.nmea.Nmea,652dce81e4b0775fde0433ff,2023-10-17T00:00:01.565Z,2023-10-17T00:00:01.000Z,f95e0f0fd0ec45969b40da2a681114e1,"$GNGGA,000001.000,3557.515627,N,12658.620234,E,4,48,0.50,22.1,M,20.6,M,1.0,*6A
$GNRMC,000001.000,A,3557.515627,N,12658.620234,E,0.003,268.59,171023,,,R,V*22
$GNVTG,268.59,T,,M,0.003,N,0.006,K,D*23
$GNGSA,A,3,05,06,07,11,13,15,20,29,30,,,,0.94,0.50,0.80,1*09
$GNGSA,A,3,68,69,70,83,84,85,,,,,,,0.94,0.50,0.80,2*0E
$GNGSA,A,3,03,07,08,13,15,26,34,,,,,,0.94,0.50,0.80,3*0A
$GNGSA,A,3,02,03,04,05,06,07,08,10,13,16,24,25,0.94,0.50,0.80,4*08
$GNGSA,A,3,03,04,07,,,,,,,,,,0.94,0.50,0.80,5*05
"
agip2.gcm.collector.plugin.core.contents.persist.mongo.nmea.Nmea,652dce82e4b0775fde043523,2023-10-17T00:00:02.605Z,2023-10-17T00:00:02.000Z,f95e0f0fd0ec45969b40da2a681114e1,"$GNGGA,000002.000,3557.515628,N,12658.620234,E,4,47,0.46,22.1,M,20.6,M,1.0,*6E
$GNRMC,000002.000,A,3557.515628,N,12658.620234,E,0.001,268.59,171023,,,R,V*2C
$GNVTG,268.59,T,,M,0.001,N,0.002,K,D*25
$GNGSA,A,3,05,06,07,11,13,15,20,29,30,,,,0.84,0.46,0.71,1*01
$GNGSA,A,3,68,69,70,83,84,85,,,,,,,0.84,0.46,0.71,2*06
$GNGSA,A,3,03,07,08,13,15,26,34,,,,,,0.84,0.46,0.71,3*02
$GNGSA,A,3,02,03,04,05,06,07,08,10,13,24,25,27,0.84,0.46,0.71,4*02
$GNGSA,A,3,03,04,07,,,,,,,,,,0.84,0.46,0.71,5*0D
"
agip2.gcm.collector.plugin.core.contents.persist.mongo.nmea.Nmea,652dce83e4b0775fde04361d,2023-10-17T00:00:03.606Z,2023-10-17T00:00:03.000Z,f95e0f0fd0ec45969b40da2a681114e1,"$GNGGA,000003.000,3557.515627,N,12658.620234,E,4,47,0.47,22.1,M,20.6,M,1.0,*61
$GNRMC,000003.000,A,3557.515627,N,12658.620234,E,0.002,268.59,171023,,,R,V*21
$GNVTG,268.59,T,,M,0.002,N,0.003,K,D*27
$GNGSA,A,3,05,06,07,11,13,15,20,29,30,,,,0.87,0.47,0.73,1*01
$GNGSA,A,3,68,69,70,83,84,85,,,,,,,0.87,0.47,0.73,2*06
$GNGSA,A,3,03,07,08,13,15,26,34,,,,,,0.87,0.47,0.73,3*02
$GNGSA,A,3,02,03,04,05,06,07,08,10,13,16,25,27,0.87,0.47,0.73,4*03
$GNGSA,A,3,03,04,07,,,,,,,,,,0.87,0.47,0.73,5*0D
"
agip2.gcm.collector.plugin.core.contents.persist.mongo.nmea.Nmea,652dce84e4b0775fde043749,2023-10-17T00:00:04.616Z,2023-10-17T00:00:04.000Z,f95e0f0fd0ec45969b40da2a681114e1,"$GNGGA,000004.000,3557.515628,N,12658.620233,E,4,47,0.47,22.1,M,20.6,M,1.0,*6E
$GNRMC,000004.000,A,3557.515628,N,12658.620233,E,0.001,268.59,171023,,,R,V*2D
$GNVTG,268.59,T,,M,0.001,N,0.001,K,D*26
$GNGSA,A,3,05,06,07,11,13,15,20,29,30,,,,0.86,0.47,0.72,1*01
$GNGSA,A,3,68,69,70,83,84,85,,,,,,,0.86,0.47,0.72,2*06
$GNGSA,A,3,03,07,08,13,15,26,34,,,,,,0.86,0.47,0.72,3*02
$GNGSA,A,3,02,03,04,05,06,07,08,10,13,16,25,27,0.86,0.47,0.72,4*03
$GNGSA,A,3,03,04,07,,,,,,,,,,0.86,0.47,0.72,5*0D
"
agip2.gcm.collector.plugin.core.contents.persist.mongo.nmea.Nmea,652dce85e4b0775fde04382d,2023-10-17T00:00:05.585Z,2023-10-17T00:00:05.000Z,f95e0f0fd0ec45969b40da2a681114e1,"$GNGGA,000005.000,3557.515627,N,12658.620233,E,4,47,0.46,22.1,M,20.6,M,1.0,*61
$GNRMC,000005.000,A,3557.515627,N,12658.620233,E,0.002,268.59,171023,,,R,V*20
$GNVTG,268.59,T,,M,0.002,N,0.004,K,D*20
$GNGSA,A,3,05,06,07,11,13,15,20,29,30,,,,0.84,0.46,0.70,1*00
$GNGSA,A,3,68,69,70,83,84,85,,,,,,,0.84,0.46,0.70,2*07
$GNGSA,A,3,03,07,08,13,15,26,34,,,,,,0.84,0.46,0.70,3*03
$GNGSA,A,3,02,03,04,05,06,07,08,10,13,16,25,27,0.84,0.46,0.70,4*02
$GNGSA,A,3,03,04,07,,,,,,,,,,0.84,0.46,0.70,5*0C
"
agip2.gcm.collector.plugin.core.contents.persist.mongo.nmea.Nmea,652dce86e4b0775fde04394d,2023-10-17T00:00:06.615Z,2023-10-17T00:00:06.000Z,f95e0f0fd0ec45969b40da2a681114e1,"$GNGGA,000006.000,3557.515628,N,12658.620233,E,4,47,0.48,22.1,M,20.6,M,1.0,*63
$GNRMC,000006.000,A,3557.515628,N,12658.620233,E,0.002,268.59,171023,,,R,V*2C
$GNVTG,268.59,T,,M,0.002,N,0.003,K,D*27
$GNGSA,A,3,05,06,07,11,13,15,20,29,30,,,,0.90,0.48,0.76,1*0D
$GNGSA,A,3,68,69,70,83,84,85,,,,,,,0.90,0.48,0.76,2*0A
$GNGSA,A,3,03,07,08,13,15,26,34,,,,,,0.90,0.48,0.76,3*0E
$GNGSA,A,3,02,03,04,05,06,07,08,10,13,16,25,27,0.90,0.48,0.76,4*0F
$GNGSA,A,3,03,04,07,,,,,,,,,,0.90,0.48,0.76,5*01
"
agip2.gcm.collector.plugin.core.contents.persist.mongo.nmea.Nmea,652dce87e4b0775fde043a31,2023-10-17T00:00:07.575Z,2023-10-17T00:00:07.000Z,f95e0f0fd0ec45969b40da2a681114e1,"$GNGGA,000007.000,3557.515627,N,12658.620233,E,4,47,0.47,22.1,M,20.6,M,1.0,*62
$GNRMC,000007.000,A,3557.515627,N,12658.620233,E,0.002,268.59,171023,,,R,V*22
$GNVTG,268.59,T,,M,0.002,N,0.004,K,D*20
$GNGSA,A,3,05,06,07,11,13,15,20,29,30,,,,0.85,0.47,0.71,1*01
$GNGSA,A,3,68,69,70,83,84,85,,,,,,,0.85,0.47,0.71,2*06
$GNGSA,A,3,03,07,08,13,15,26,34,,,,,,0.85,0.47,0.71,3*02
$GNGSA,A,3,02,03,04,05,06,07,08,10,13,16,25,27,0.85,0.47,0.71,4*03
$GNGSA,A,3,03,04,07,,,,,,,,,,0.85,0.47,0.71,5*0D
"
agip2.gcm.collector.plugin.core.contents.persist.mongo.nmea.Nmea,652dce88e4b0775fde043b5f,2023-10-17T00:00:08.616Z,2023-10-17T00:00:08.000Z,f95e0f0fd0ec45969b40da2a681114e1,"$GNGGA,000008.000,3557.515628,N,12658.620233,E,4,48,0.48,22.1,M,20.6,M,1.0,*62
$GNRMC,000008.000,A,3557.515628,N,12658.620233,E,0.000,268.59,171023,,,R,V*20
$GNVTG,268.59,T,,M,0.000,N,0.001,K,D*27
$GNGSA,A,3,05,06,07,11,13,15,20,29,30,,,,0.88,0.48,0.74,1*06
$GNGSA,A,3,68,69,70,83,84,85,,,,,,,0.88,0.48,0.74,2*01
$GNGSA,A,3,03,07,08,13,15,26,34,,,,,,0.88,0.48,0.74,3*05
$GNGSA,A,3,02,03,04,05,06,07,08,10,13,16,24,25,0.88,0.48,0.74,4*07
$GNGSA,A,3,03,04,07,,,,,,,,,,0.88,0.48,0.74,5*0A
"
agip2.gcm.collector.plugin.core.contents.persist.mongo.nmea.Nmea,652dce89e4b0775fde043c4f,2023-10-17T00:00:09.576Z,2023-10-17T00:00:09.000Z,f95e0f0fd0ec45969b40da2a681114e1,"$GNGGA,000009.000,3557.515627,N,12658.620233,E,4,48,0.48,22.1,M,20.6,M,1.0,*6C
$GNRMC,000009.000,A,3557.515627,N,12658.620233,E,0.002,268.59,171023,,,R,V*2C
$GNVTG,268.59,T,,M,0.002,N,0.004,K,D*20
$GNGSA,A,3,05,06,07,11,13,15,20,29,30,,,,0.88,0.48,0.74,1*06
$GNGSA,A,3,68,69,70,83,84,85,,,,,,,0.88,0.48,0.74,2*01
$GNGSA,A,3,03,07,08,13,15,26,34,,,,,,0.88,0.48,0.74,3*05
$GNGSA,A,3,02,03,04,05,06,07,08,10,13,16,24,25,0.88,0.48,0.74,4*07
$GNGSA,A,3,03,04,07,,,,,,,,,,0.88,0.48,0.74,5*0A
"
agip2.gcm.collector.plugin.core.contents.persist.mongo.nmea.Nmea,652dce8ae4b0775fde043d76,2023-10-17T00:00:10.615Z,2023-10-17T00:00:10.000Z,f95e0f0fd0ec45969b40da2a681114e1,"$GNGGA,000010.000,3557.515628,N,12658.620233,E,4,48,0.51,22.1,M,20.6,M,1.0,*63
$GNRMC,000010.000,A,3557.515628,N,12658.620233,E,0.001,268.59,171023,,,R,V*28
$GNVTG,268.59,T,,M,0.001,N,0.002,K,D*25
$GNGSA,A,3,05,06,07,11,13,15,20,29,30,,,,0.93,0.51,0.79,1*09
$GNGSA,A,3,68,69,70,83,84,85,,,,,,,0.93,0.51,0.79,2*0E
$GNGSA,A,3,03,07,08,13,15,26,34,,,,,,0.93,0.51,0.79,3*0A
$GNGSA,A,3,02,03,04,05,06,07,08,10,13,16,24,25,0.93,0.51,0.79,4*08
$GNGSA,A,3,03,04,07,,,,,,,,,,0.93,0.51,0.79,5*05
"
agip2.gcm.collector.plugin.core.contents.persist.mongo.nmea.Nmea,652dce8be4b0775fde043e54,2023-10-17T00:00:11.565Z,2023-10-17T00:00:11.000Z,f95e0f0fd0ec45969b40da2a681114e1,"$GNGGA,000011.000,3557.515627,N,12658.620232,E,4,48,0.51,22.1,M,20.6,M,1.0,*6C
$GNRMC,000011.000,A,3557.515627,N,12658.620232,E,0.003,268.59,171023,,,R,V*25
$GNVTG,268.59,T,,M,0.003,N,0.005,K,D*20
$GNGSA,A,3,05,06,07,11,13,15,20,29,30,,,,0.93,0.51,0.79,1*09
$GNGSA,A,3,68,69,70,83,84,85,,,,,,,0.93,0.51,0.79,2*0E
$GNGSA,A,3,03,07,08,13,15,26,34,,,,,,0.93,0.51,0.79,3*0A
$GNGSA,A,3,02,03,04,05,06,07,08,10,13,16,24,25,0.93,0.51,0.79,4*08
$GNGSA,A,3,03,04,07,,,,,,,,,,0.93,0.51,0.79,5*05
"
agip2.gcm.collector.plugin.core.contents.persist.mongo.nmea.Nmea,652dce8ce4b0775fde043f94,2023-10-17T00:00:12.626Z,2023-10-17T00:00:12.000Z,f95e0f0fd0ec45969b40da2a681114e1,"$GNGGA,000012.000,3557.515628,N,12658.620232,E,4,48,0.51,22.1,M,20.6,M,1.0,*60
$GNRMC,000012.000,A,3557.515628,N,12658.620232,E,0.002,268.59,171023,,,R,V*28
$GNVTG,268.59,T,,M,0.002,N,0.003,K,D*27
$GNGSA,A,3,05,06,07,11,13,15,20,29,30,,,,0.96,0.51,0.82,1*08
$GNGSA,A,3,68,69,70,83,84,85,,,,,,,0.96,0.51,0.82,2*0F
$GNGSA,A,3,03,07,08,13,15,26,34,,,,,,0.96,0.51,0.82,3*0B
$GNGSA,A,3,02,03,04,05,06,07,08,10,13,16,24,25,0.96,0.51,0.82,4*09
$GNGSA,A,3,03,04,07,,,,,,,,,,0.96,0.51,0.82,5*04
"
agip2.gcm.collector.plugin.core.contents.persist.mongo.nmea.Nmea,652dce8de4b0775fde044074,2023-10-17T00:00:13.585Z,2023-10-17T00:00:13.000Z,f95e0f0fd0ec45969b40da2a681114e1,"$GNGGA,000013.000,3557.515627,N,12658.620233,E,4,48,0.54,22.1,M,20.6,M,1.0,*6A
$GNRMC,000013.000,A,3557.515627,N,12658.620233,E,0.002,268.59,171023,,,R,V*27
$GNVTG,268.59,T,,M,0.002,N,0.003,K,D*27
$GNGSA,A,3,05,06,07,11,13,15,20,29,30,,,,1.01,0.54,0.86,1*06
$GNGSA,A,3,68,69,70,83,84,85,,,,,,,1.01,0.54,0.86,2*01
$GNGSA,A,3,03,07,08,13,15,26,34,,,,,,1.01,0.54,0.86,3*05
$GNGSA,A,3,02,03,04,05,06,07,08,10,13,16,24,25,1.01,0.54,0.86,4*07
$GNGSA,A,3,03,04,07,,,,,,,,,,1.01,0.54,0.86,5*0A
"
agip2.gcm.collector.plugin.core.contents.persist.mongo.nmea.Nmea,652dce8ee4b0775fde044195,2023-10-17T00:00:14.595Z,2023-10-17T00:00:14.000Z,f95e0f0fd0ec45969b40da2a681114e1,"$GNGGA,000014.000,3557.515628,N,12658.620233,E,4,48,0.52,22.1,M,20.6,M,1.0,*64
$GNRMC,000014.000,A,3557.515628,N,12658.620233,E,0.002,268.59,171023,,,R,V*2F
$GNVTG,268.59,T,,M,0.002,N,0.004,K,D*20
$GNGSA,A,3,05,06,07,11,13,15,20,29,30,,,,0.97,0.52,0.82,1*0A
$GNGSA,A,3,68,69,70,83,84,85,,,,,,,0.97,0.52,0.82,2*0D
$GNGSA,A,3,03,07,08,13,15,26,34,,,,,,0.97,0.52,0.82,3*09
$GNGSA,A,3,02,03,04,05,06,07,08,10,13,16,24,25,0.97,0.52,0.82,4*0B
$GNGSA,A,3,03,04,07,,,,,,,,,,0.97,0.52,0.82,5*06
"
agip2.gcm.collector.plugin.core.contents.persist.mongo.nmea.Nmea,652dce8fe4b0775fde044286,2023-10-17T00:00:15.583Z,2023-10-17T00:00:15.000Z,f95e0f0fd0ec45969b40da2a681114e1,"$GNGGA,000015.000,3557.515629,N,12658.620233,E,4,48,0.52,22.1,M,20.6,M,1.0,*64
$GNRMC,000015.000,A,3557.515629,N,12658.620233,E,0.002,268.59,171023,,,R,V*2F
$GNVTG,268.59,T,,M,0.002,N,0.004,K,D*20
$GNGSA,A,3,05,06,07,11,13,15,20,29,30,,,,0.97,0.52,0.82,1*0A
$GNGSA,A,3,68,69,70,83,84,85,,,,,,,0.97,0.52,0.82,2*0D
$GNGSA,A,3,03,07,08,13,15,26,34,,,,,,0.97,0.52,0.82,3*09
$GNGSA,A,3,02,03,04,05,06,07,08,10,13,16,24,25,0.97,0.52,0.82,4*0B
$GNGSA,A,3,03,04,07,,,,,,,,,,0.97,0.52,0.82,5*06
"
agip2.gcm.collector.plugin.core.contents.persist.mongo.nmea.Nmea,652dce90e4b0775fde0443ba,2023-10-17T00:00:16.645Z,2023-10-17T00:00:16.000Z,f95e0f0fd0ec45969b40da2a681114e1,"$GNGGA,000016.000,3557.515628,N,12658.620234,E,4,47,0.51,22.1,M,20.6,M,1.0,*6D
$GNRMC,000016.000,A,3557.515628,N,12658.620234,E,0.002,268.59,171023,,,R,V*2A
$GNVTG,268.59,T,,M,0.002,N,0.003,K,D*27
$GNGSA,A,3,05,06,11,13,15,20,29,30,,,,,0.96,0.51,0.81,1*0C
$GNGSA,A,3,68,69,70,83,84,85,,,,,,,0.96,0.51,0.81,2*0C
$GNGSA,A,3,03,07,08,13,15,26,34,,,,,,0.96,0.51,0.81,3*08
$GNGSA,A,3,02,03,04,05,06,07,08,10,13,16,24,25,0.96,0.51,0.81,4*0A
$GNGSA,A,3,03,04,07,,,,,,,,,,0.96,0.51,0.81,5*07
"
agip2.gcm.collector.plugin.core.contents.persist.mongo.nmea.Nmea,652dce91e4b0775fde04448b,2023-10-17T00:00:17.575Z,2023-10-17T00:00:17.000Z,f95e0f0fd0ec45969b40da2a681114e1,"$GNGGA,000017.000,3557.515628,N,12658.620234,E,4,46,0.50,22.1,M,20.6,M,1.0,*6C
$GNRMC,000017.000,A,3557.515628,N,12658.620234,E,0.005,268.59,171023,,,R,V*2C
$GNVTG,268.59,T,,M,0.005,N,0.009,K,D*2A
$GNGSA,A,3,05,06,11,13,15,20,29,30,,,,,0.95,0.50,0.81,1*0E
$GNGSA,A,3,68,69,70,83,84,85,,,,,,,0.95,0.50,0.81,2*0E
$GNGSA,A,3,03,07,08,13,15,26,,,,,,,0.95,0.50,0.81,3*0D
$GNGSA,A,3,02,03,04,05,06,07,08,10,13,16,24,25,0.95,0.50,0.81,4*08
$GNGSA,A,3,03,04,07,,,,,,,,,,0.95,0.50,0.81,5*05
"
agip2.gcm.collector.plugin.core.contents.persist.mongo.nmea.Nmea,652dce92e4b0775fde0445b2,2023-10-17T00:00:18.605Z,2023-10-17T00:00:18.000Z,f95e0f0fd0ec45969b40da2a681114e1,"$GNGGA,000018.000,3557.515628,N,12658.620234,E,4,46,0.50,22.1,M,20.6,M,1.0,*63
$GNRMC,000018.000,A,3557.515628,N,12658.620234,E,0.001,268.59,171023,,,R,V*27
$GNVTG,268.59,T,,M,0.001,N,0.001,K,D*26
$GNGSA,A,3,05,06,11,13,15,20,29,30,,,,,0.95,0.50,0.81,1*0E
$GNGSA,A,3,68,69,70,83,84,85,,,,,,,0.95,0.50,0.81,2*0E
$GNGSA,A,3,03,07,08,13,15,26,,,,,,,0.95,0.50,0.81,3*0D
$GNGSA,A,3,02,03,04,05,06,07,08,10,13,16,24,25,0.95,0.50,0.81,4*08
$GNGSA,A,3,03,04,07,,,,,,,,,,0.95,0.50,0.81,5*05
"
agip2.gcm.collector.plugin.core.contents.persist.mongo.nmea.Nmea,652dce93e4b0775fde0446b4,2023-10-17T00:00:19.595Z,2023-10-17T00:00:19.000Z,f95e0f0fd0ec45969b40da2a681114e1,"$GNGGA,000019.000,3557.515628,N,12658.620233,E,4,47,0.50,22.1,M,20.6,M,1.0,*64
$GNRMC,000019.000,A,3557.515628,N,12658.620233,E,0.001,268.59,171023,,,R,V*21
$GNVTG,268.59,T,,M,0.001,N,0.001,K,D*26
$GNGSA,A,3,05,06,11,13,15,20,29,30,,,,,0.95,0.50,0.81,1*0E
$GNGSA,A,3,68,69,70,83,84,85,,,,,,,0.95,0.50,0.81,2*0E
$GNGSA,A,3,03,07,08,13,15,26,34,,,,,,0.95,0.50,0.81,3*0A
$GNGSA,A,3,02,03,04,05,06,07,08,10,13,16,24,25,0.95,0.50,0.81,4*08
$GNGSA,A,3,03,04,07,,,,,,,,,,0.95,0.50,0.81,5*05
"
agip2.gcm.collector.plugin.core.contents.persist.mongo.nmea.Nmea,652dce94e4b0775fde0447dd,2023-10-17T00:00:20.625Z,2023-10-17T00:00:20.000Z,f95e0f0fd0ec45969b40da2a681114e1,"$GNGGA,000020.000,3557.515628,N,12658.620234,E,4,46,0.50,22.1,M,20.6,M,1.0,*68
$GNRMC,000020.000,A,3557.515628,N,12658.620234,E,0.001,268.59,171023,,,R,V*2C
$GNVTG,268.59,T,,M,0.001,N,0.001,K,D*26
$GNGSA,A,3,05,06,11,13,15,20,29,30,,,,,0.94,0.50,0.80,1*0E
$GNGSA,A,3,68,69,70,83,84,85,,,,,,,0.94,0.50,0.80,2*0E
$GNGSA,A,3,03,07,08,13,15,26,34,,,,,,0.94,0.50,0.80,3*0A
$GNGSA,A,3,02,03,04,05,06,07,08,10,13,16,25,27,0.94,0.50,0.80,4*0B
$GNGSA,A,3,03,04,07,,,,,,,,,,0.94,0.50,0.80,5*05
"
agip2.gcm.collector.plugin.core.contents.persist.mongo.nmea.Nmea,652dce95e4b0775fde0448b7,2023-10-17T00:00:21.595Z,2023-10-17T00:00:21.000Z,f95e0f0fd0ec45969b40da2a681114e1,"$GNGGA,000021.000,3557.515628,N,12658.620234,E,4,46,0.50,22.1,M,20.6,M,1.0,*69
$GNRMC,000021.000,A,3557.515628,N,12658.620234,E,0.001,268.59,171023,,,R,V*2D
$GNVTG,268.59,T,,M,0.001,N,0.002,K,D*25
$GNGSA,A,3,05,06,11,13,15,20,29,30,,,,,0.94,0.50,0.80,1*0E
$GNGSA,A,3,68,69,70,83,84,85,,,,,,,0.94,0.50,0.80,2*0E
$GNGSA,A,3,03,07,08,13,15,26,34,,,,,,0.94,0.50,0.80,3*0A
$GNGSA,A,3,02,03,04,05,06,07,08,10,13,16,25,27,0.94,0.50,0.80,4*0B
$GNGSA,A,3,03,04,07,,,,,,,,,,0.94,0.50,0.80,5*05
"
agip2.gcm.collector.plugin.core.contents.persist.mongo.nmea.Nmea,652dce96e4b0775fde0449db,2023-10-17T00:00:22.605Z,2023-10-17T00:00:22.000Z,f95e0f0fd0ec45969b40da2a681114e1,"$GNGGA,000022.000,3557.515628,N,12658.620234,E,4,46,0.50,22.1,M,20.6,M,1.0,*6A
$GNRMC,000022.000,A,3557.515628,N,12658.620234,E,0.002,268.59,171023,,,R,V*2D
$GNVTG,268.59,T,,M,0.002,N,0.003,K,D*27
$GNGSA,A,3,05,06,11,13,15,20,29,30,,,,,0.95,0.50,0.80,1*0F
$GNGSA,A,3,68,69,70,83,84,85,,,,,,,0.95,0.50,0.80,2*0F
$GNGSA,A,3,03,07,08,13,15,26,34,,,,,,0.95,0.50,0.80,3*0B
$GNGSA,A,3,02,03,04,05,06,07,08,10,13,16,25,27,0.95,0.50,0.80,4*0A
$GNGSA,A,3,03,04,07,,,,,,,,,,0.95,0.50,0.80,5*04
"
agip2.gcm.collector.plugin.core.contents.persist.mongo.nmea.Nmea,652dce97e4b0775fde044ad0,2023-10-17T00:00:23.565Z,2023-10-17T00:00:23.000Z,f95e0f0fd0ec45969b40da2a681114e1,"$GNGGA,000023.000,3557.515628,N,12658.620234,E,4,46,0.50,22.1,M,20.6,M,1.0,*6B
$GNRMC,000023.000,A,3557.515628,N,12658.620234,E,0.002,268.59,171023,,,R,V*2C
$GNVTG,268.59,T,,M,0.002,N,0.004,K,D*20
$GNGSA,A,3,05,06,11,13,15,20,29,30,,,,,0.94,0.50,0.80,1*0E
$GNGSA,A,3,68,69,70,83,84,85,,,,,,,0.94,0.50,0.80,2*0E
$GNGSA,A,3,03,07,08,13,15,26,34,,,,,,0.94,0.50,0.80,3*0A
$GNGSA,A,3,02,03,04,05,06,07,08,10,13,16,25,27,0.94,0.50,0.80,4*0B
$GNGSA,A,3,03,04,07,,,,,,,,,,0.94,0.50,0.80,5*05
"
agip2.gcm.collector.plugin.core.contents.persist.mongo.nmea.Nmea,652dce98e4b0775fde044c00,2023-10-17T00:00:24.615Z,2023-10-17T00:00:24.000Z,f95e0f0fd0ec45969b40da2a681114e1,"$GNGGA,000024.000,3557.515628,N,12658.620234,E,4,46,0.50,22.1,M,20.6,M,1.0,*6C
$GNRMC,000024.000,A,3557.515628,N,12658.620234,E,0.003,268.59,171023,,,R,V*2A
$GNVTG,268.59,T,,M,0.003,N,0.006,K,D*23
$GNGSA,A,3,05,06,11,13,15,20,29,30,,,,,0.94,0.50,0.80,1*0E
$GNGSA,A,3,68,69,70,83,84,85,,,,,,,0.94,0.50,0.80,2*0E
$GNGSA,A,3,03,07,08,13,15,26,34,,,,,,0.94,0.50,0.80,3*0A
$GNGSA,A,3,02,03,04,05,06,07,08,10,13,16,25,27,0.94,0.50,0.80,4*0B
$GNGSA,A,3,03,04,07,,,,,,,,,,0.94,0.50,0.80,5*05
"
agip2.gcm.collector.plugin.core.contents.persist.mongo.nmea.Nmea,652dce99e4b0775fde044cfb,2023-10-17T00:00:25.605Z,2023-10-17T00:00:25.000Z,f95e0f0fd0ec45969b40da2a681114e1,"$GNGGA,000025.000,3557.515628,N,12658.620235,E,4,47,0.50,22.1,M,20.6,M,1.0,*6D
$GNRMC,000025.000,A,3557.515628,N,12658.620235,E,0.001,268.59,171023,,,R,V*28
$GNVTG,268.59,T,,M,0.001,N,0.002,K,D*25
$GNGSA,A,3,05,06,11,13,15,20,29,30,,,,,0.95,0.50,0.81,1*0E
$GNGSA,A,3,68,69,70,83,84,85,,,,,,,0.95,0.50,0.81,2*0E
$GNGSA,A,3,03,07,08,13,15,26,34,,,,,,0.95,0.50,0.81,3*0A
$GNGSA,A,3,02,03,04,05,06,07,08,10,13,16,25,27,0.95,0.50,0.81,4*0B
$GNGSA,A,3,03,04,07,,,,,,,,,,0.95,0.50,0.81,5*05
"
agip2.gcm.collector.plugin.core.contents.persist.mongo.nmea.Nmea,652dce9ae4b0775fde044e0c,2023-10-17T00:00:26.605Z,2023-10-17T00:00:26.000Z,f95e0f0fd0ec45969b40da2a681114e1,"$GNGGA,000026.000,3557.515628,N,12658.620233,E,4,46,0.51,22.1,M,20.6,M,1.0,*68
$GNRMC,000026.000,A,3557.515628,N,12658.620233,E,0.001,268.59,171023,,,R,V*2D
$GNVTG,268.59,T,,M,0.001,N,0.002,K,D*25
$GNGSA,A,3,05,06,11,13,15,20,29,30,,,,,0.95,0.51,0.81,1*0F
$GNGSA,A,3,68,69,70,83,84,85,,,,,,,0.95,0.51,0.81,2*0F
$GNGSA,A,3,03,07,08,13,15,26,34,,,,,,0.95,0.51,0.81,3*0B
$GNGSA,A,3,02,03,04,05,06,07,08,10,13,16,25,27,0.95,0.51,0.81,4*0A
$GNGSA,A,3,03,04,07,,,,,,,,,,0.95,0.51,0.81,5*04
"
agip2.gcm.collector.plugin.core.contents.persist.mongo.nmea.Nmea,652dce9be4b0775fde044f04,2023-10-17T00:00:27.585Z,2023-10-17T00:00:27.000Z,f95e0f0fd0ec45969b40da2a681114e1,"$GNGGA,000027.000,3557.515628,N,12658.620234,E,4,47,0.51,22.1,M,20.6,M,1.0,*6F
$GNRMC,000027.000,A,3557.515628,N,12658.620234,E,0.002,268.59,171023,,,R,V*28
$GNVTG,268.59,T,,M,0.002,N,0.003,K,D*27
$GNGSA,A,3,05,06,11,13,15,20,29,30,,,,,0.95,0.51,0.81,1*0F
$GNGSA,A,3,68,69,70,83,84,85,,,,,,,0.95,0.51,0.81,2*0F
$GNGSA,A,3,03,07,08,13,15,26,34,,,,,,0.95,0.51,0.81,3*0B
$GNGSA,A,3,02,03,04,05,06,07,08,10,13,16,25,27,0.95,0.51,0.81,4*0A
$GNGSA,A,3,03,04,07,,,,,,,,,,0.95,0.51,0.81,5*04
"
agip2.gcm.collector.plugin.core.contents.persist.mongo.nmea.Nmea,652dce9ce4b0775fde045046,2023-10-17T00:00:28.635Z,2023-10-17T00:00:28.000Z,f95e0f0fd0ec45969b40da2a681114e1,"$GNGGA,000028.000,3557.515628,N,12658.620233,E,4,47,0.50,22.1,M,20.6,M,1.0,*66
$GNRMC,000028.000,A,3557.515628,N,12658.620233,E,0.002,268.59,171023,,,R,V*20
$GNVTG,268.59,T,,M,0.002,N,0.003,K,D*27
$GNGSA,A,3,05,06,11,13,15,20,29,30,,,,,0.95,0.50,0.81,1*0E
$GNGSA,A,3,68,69,70,83,84,85,,,,,,,0.95,0.50,0.81,2*0E
$GNGSA,A,3,03,07,08,13,15,26,34,,,,,,0.95,0.50,0.81,3*0A
$GNGSA,A,3,02,03,04,05,06,07,08,10,13,16,25,27,0.95,0.50,0.81,4*0B
$GNGSA,A,3,03,04,07,,,,,,,,,,0.95,0.50,0.81,5*05
"
agip2.gcm.collector.plugin.core.contents.persist.mongo.nmea.Nmea,652dce9de4b0775fde045133,2023-10-17T00:00:29.605Z,2023-10-17T00:00:29.000Z,f95e0f0fd0ec45969b40da2a681114e1,"$GNGGA,000029.000,3557.515628,N,12658.620233,E,4,47,0.51,22.1,M,20.6,M,1.0,*66
$GNRMC,000029.000,A,3557.515628,N,12658.620233,E,0.004,268.59,171023,,,R,V*27
$GNVTG,268.59,T,,M,0.004,N,0.007,K,D*25
$GNGSA,A,3,05,06,11,13,15,20,29,30,,,,,0.95,0.51,0.81,1*0F
$GNGSA,A,3,68,69,70,83,84,85,,,,,,,0.95,0.51,0.81,2*0F
$GNGSA,A,3,03,07,08,13,15,26,34,,,,,,0.95,0.51,0.81,3*0B
$GNGSA,A,3,02,03,04,05,06,07,08,10,13,16,25,27,0.95,0.51,0.81,4*0A
$GNGSA,A,3,03,04,07,,,,,,,,,,0.95,0.51,0.81,5*04
"
agip2.gcm.collector.plugin.core.contents.persist.mongo.nmea.Nmea,652dce9ee4b0775fde045251,2023-10-17T00:00:30.635Z,2023-10-17T00:00:30.000Z,f95e0f0fd0ec45969b40da2a681114e1,"$GNGGA,000030.000,3557.515627,N,12658.620234,E,4,47,0.51,22.1,M,20.6,M,1.0,*66
$GNRMC,000030.000,A,3557.515627,N,12658.620234,E,0.003,268.59,171023,,,R,V*20
$GNVTG,268.59,T,,M,0.003,N,0.006,K,D*23
$GNGSA,A,3,05,06,11,13,15,20,29,30,,,,,0.98,0.51,0.84,1*07
$GNGSA,A,3,68,69,70,83,84,85,,,,,,,0.98,0.51,0.84,2*07
$GNGSA,A,3,03,07,08,13,15,26,34,,,,,,0.98,0.51,0.84,3*03
$GNGSA,A,3,02,03,04,05,06,07,08,10,13,16,25,27,0.98,0.51,0.84,4*02
$GNGSA,A,3,03,04,07,,,,,,,,,,0.98,0.51,0.84,5*0C
"
agip2.gcm.collector.plugin.core.contents.persist.mongo.nmea.Nmea,652dce9fe4b0775fde04532f,2023-10-17T00:00:31.585Z,2023-10-17T00:00:31.000Z,f95e0f0fd0ec45969b40da2a681114e1,"$GNGGA,000031.000,3557.515628,N,12658.620235,E,4,47,0.50,22.1,M,20.6,M,1.0,*68
$GNRMC,000031.000,A,3557.515628,N,12658.620235,E,0.001,268.59,171023,,,R,V*2D
$GNVTG,268.59,T,,M,0.001,N,0.003,K,D*24
$GNGSA,A,3,05,06,07,11,13,15,20,29,30,,,,0.94,0.50,0.80,1*09
$GNGSA,A,3,68,69,70,83,84,85,,,,,,,0.94,0.50,0.80,2*0E
$GNGSA,A,3,03,07,08,13,15,26,34,,,,,,0.94,0.50,0.80,3*0A
$GNGSA,A,3,02,03,04,05,06,07,08,10,13,16,24,25,0.94,0.50,0.80,4*08
$GNGSA,A,3,03,04,07,,,,,,,,,,0.94,0.50,0.80,5*05
"
agip2.gcm.collector.plugin.core.contents.persist.mongo.nmea.Nmea,652dcea0e4b0775fde04545a,2023-10-17T00:00:32.616Z,2023-10-17T00:00:32.000Z,f95e0f0fd0ec45969b40da2a681114e1,"$GNGGA,000032.000,3557.515628,N,12658.620235,E,4,48,0.50,22.1,M,20.6,M,1.0,*64
$GNRMC,000032.000,A,3557.515628,N,12658.620235,E,0.003,268.59,171023,,,R,V*2C
$GNVTG,268.59,T,,M,0.003,N,0.006,K,D*23
$GNGSA,A,3,05,06,07,11,13,15,20,29,30,,,,0.95,0.50,0.81,1*09
$GNGSA,A,3,68,69,70,83,84,85,,,,,,,0.95,0.50,0.81,2*0E
$GNGSA,A,3,03,07,08,13,15,26,34,,,,,,0.95,0.50,0.81,3*0A
$GNGSA,A,3,02,03,04,05,06,07,08,10,13,16,24,25,0.95,0.50,0.81,4*08
$GNGSA,A,3,03,04,07,,,,,,,,,,0.95,0.50,0.81,5*05
"
agip2.gcm.collector.plugin.core.contents.persist.mongo.nmea.Nmea,652dcea1e4b0775fde04554d,2023-10-17T00:00:33.585Z,2023-10-17T00:00:33.000Z,f95e0f0fd0ec45969b40da2a681114e1,"$GNGGA,000033.000,3557.515628,N,12658.620235,E,4,47,0.50,22.1,M,20.6,M,1.0,*6A
$GNRMC,000033.000,A,3557.515628,N,12658.620235,E,0.004,268.59,171023,,,R,V*2A
$GNVTG,268.59,T,,M,0.004,N,0.007,K,D*25
$GNGSA,A,3,05,06,07,11,13,15,20,29,30,,,,0.95,0.50,0.81,1*09
$GNGSA,A,3,68,69,70,83,84,85,,,,,,,0.95,0.50,0.81,2*0E
$GNGSA,A,3,03,07,08,13,15,34,,,,,,,0.95,0.50,0.81,3*0E
$GNGSA,A,3,02,03,04,05,06,07,08,10,13,16,24,25,0.95,0.50,0.81,4*08
$GNGSA,A,3,03,04,07,,,,,,,,,,0.95,0.50,0.81,5*05
"
agip2.gcm.collector.plugin.core.contents.persist.mongo.nmea.Nmea,652dcea2e4b0775fde045672,2023-10-17T00:00:34.615Z,2023-10-17T00:00:34.000Z,f95e0f0fd0ec45969b40da2a681114e1,"$GNGGA,000034.000,3557.515627,N,12658.620235,E,4,46,0.50,22.1,M,20.6,M,1.0,*63
$GNRMC,000034.000,A,3557.515627,N,12658.620235,E,0.000,268.59,171023,,,R,V*26
$GNVTG,268.59,T,,M,0.000,N,0.000,K,D*26
$GNGSA,A,3,05,06,07,11,13,15,20,29,30,,,,0.95,0.50,0.81,1*09
$GNGSA,A,3,68,69,70,83,84,85,,,,,,,0.95,0.50,0.81,2*0E
$GNGSA,A,3,03,07,08,13,15,34,,,,,,,0.95,0.50,0.81,3*0E
$GNGSA,A,3,02,03,04,05,06,07,08,10,13,16,24,25,0.95,0.50,0.81,4*08
$GNGSA,A,3,03,04,07,,,,,,,,,,0.95,0.50,0.81,5*05
"
agip2.gcm.collector.plugin.core.contents.persist.mongo.nmea.Nmea,652dcea3e4b0775fde045771,2023-10-17T00:00:35.605Z,2023-10-17T00:00:35.000Z,f95e0f0fd0ec45969b40da2a681114e1,"$GNGGA,000035.000,3557.515627,N,12658.620235,E,4,47,0.50,22.1,M,20.6,M,1.0,*63
$GNRMC,000035.000,A,3557.515627,N,12658.620235,E,0.004,268.59,171023,,,R,V*23
$GNVTG,268.59,T,,M,0.004,N,0.007,K,D*25
$GNGSA,A,3,05,06,07,11,13,15,20,29,30,,,,0.95,0.50,0.81,1*09
$GNGSA,A,3,68,69,70,83,84,85,,,,,,,0.95,0.50,0.81,2*0E
$GNGSA,A,3,03,07,08,13,15,26,34,,,,,,0.95,0.50,0.81,3*0A
$GNGSA,A,3,02,03,04,05,06,07,08,10,13,16,24,25,0.95,0.50,0.81,4*08
$GNGSA,A,3,03,04,07,,,,,,,,,,0.95,0.50,0.81,5*05
"
agip2.gcm.collector.plugin.core.contents.persist.mongo.nmea.Nmea,652dcea4e4b0775fde04586f,2023-10-17T00:00:36.595Z,2023-10-17T00:00:36.000Z,f95e0f0fd0ec45969b40da2a681114e1,"$GNGGA,000036.000,3557.515627,N,12658.620235,E,4,47,0.49,22.1,M,20.6,M,1.0,*68
$GNRMC,000036.000,A,3557.515627,N,12658.620235,E,0.001,268.59,171023,,,R,V*25
$GNVTG,268.59,T,,M,0.001,N,0.002,K,D*25
$GNGSA,A,3,05,06,07,11,13,15,20,29,30,,,,0.90,0.49,0.76,1*0C
$GNGSA,A,3,68,69,70,83,84,85,,,,,,,0.90,0.49,0.76,2*0B
$GNGSA,A,3,03,07,08,13,15,26,34,,,,,,0.90,0.49,0.76,3*0F
$GNGSA,A,3,02,03,04,05,06,07,08,10,13,16,24,25,0.90,0.49,0.76,4*0D
$GNGSA,A,3,03,04,07,,,,,,,,,,0.90,0.49,0.76,5*00
"
agip2.gcm.collector.plugin.core.contents.persist.mongo.nmea.Nmea,652dcea5e4b0775fde04597b,2023-10-17T00:00:37.585Z,2023-10-17T00:00:37.000Z,f95e0f0fd0ec45969b40da2a681114e1,"$GNGGA,000037.000,3557.515628,N,12658.620235,E,4,48,0.50,22.1,M,20.6,M,1.0,*61
$GNRMC,000037.000,A,3557.515628,N,12658.620235,E,0.003,268.59,171023,,,R,V*29
$GNVTG,268.59,T,,M,0.003,N,0.005,K,D*20
$GNGSA,A,3,05,06,07,11,13,15,20,29,30,,,,0.94,0.50,0.80,1*09
$GNGSA,A,3,68,69,70,83,84,85,,,,,,,0.94,0.50,0.80,2*0E
$GNGSA,A,3,03,07,08,13,15,26,34,,,,,,0.94,0.50,0.80,3*0A
$GNGSA,A,3,02,03,04,05,06,07,08,10,13,16,24,25,0.94,0.50,0.80,4*08
$GNGSA,A,3,03,04,07,,,,,,,,,,0.94,0.50,0.80,5*05
"
agip2.gcm.collector.plugin.core.contents.persist.mongo.nmea.Nmea,652dcea6e4b0775fde045aab,2023-10-17T00:00:38.625Z,2023-10-17T00:00:38.000Z,f95e0f0fd0ec45969b40da2a681114e1,"$GNGGA,000038.000,3557.515628,N,12658.620234,E,4,47,0.50,22.1,M,20.6,M,1.0,*60
$GNRMC,000038.000,A,3557.515628,N,12658.620234,E,0.000,268.59,171023,,,R,V*24
$GNVTG,268.59,T,,M,0.000,N,0.001,K,D*27
$GNGSA,A,3,05,06,07,11,13,15,20,29,30,,,,0.94,0.50,0.80,1*09
$GNGSA,A,3,68,69,70,83,84,85,,,,,,,0.94,0.50,0.80,2*0E
$GNGSA,A,3,03,07,08,13,15,26,34,,,,,,0.94,0.50,0.80,3*0A
$GNGSA,A,3,02,03,04,05,06,07,08,10,13,16,25,27,0.94,0.50,0.80,4*0B
$GNGSA,A,3,03,04,07,,,,,,,,,,0.94,0.50,0.80,5*05
"
agip2.gcm.collector.plugin.core.contents.persist.mongo.nmea.Nmea,652dcea7e4b0775fde045bbc,2023-10-17T00:00:39.675Z,2023-10-17T00:00:39.000Z,f95e0f0fd0ec45969b40da2a681114e1,"$GNGGA,000039.000,3557.515628,N,12658.620234,E,4,48,0.49,22.1,M,20.6,M,1.0,*66
$GNRMC,000039.000,A,3557.515628,N,12658.620234,E,0.004,268.59,171023,,,R,V*21
$GNVTG,268.59,T,,M,0.004,N,0.007,K,D*25
$GNGSA,A,3,05,06,07,11,13,15,20,29,30,,,,0.91,0.49,0.77,1*0C
$GNGSA,A,3,68,69,70,83,84,85,,,,,,,0.91,0.49,0.77,2*0B
$GNGSA,A,3,03,07,08,13,15,26,34,,,,,,0.91,0.49,0.77,3*0F
$GNGSA,A,3,02,03,04,05,06,07,08,10,13,16,25,27,0.91,0.49,0.77,4*0E
$GNGSA,A,3,03,04,07,,,,,,,,,,0.91,0.49,0.77,5*00
"
agip2.gcm.collector.plugin.core.contents.persist.mongo.nmea.Nmea,652dcea8e4b0775fde045cc2,2023-10-17T00:00:40.635Z,2023-10-17T00:00:40.000Z,f95e0f0fd0ec45969b40da2a681114e1,"$GNGGA,000040.000,3557.515627,N,12658.620233,E,4,47,0.49,22.1,M,20.6,M,1.0,*6F
$GNRMC,000040.000,A,3557.515627,N,12658.620233,E,0.002,268.59,171023,,,R,V*21
$GNVTG,268.59,T,,M,0.002,N,0.003,K,D*27
$GNGSA,A,3,05,06,07,11,13,15,20,29,30,,,,0.91,0.49,0.77,1*0C
$GNGSA,A,3,68,69,70,83,84,85,,,,,,,0.91,0.49,0.77,2*0B
$GNGSA,A,3,03,07,08,13,15,26,34,,,,,,0.91,0.49,0.77,3*0F
$GNGSA,A,3,02,03,04,05,06,07,08,10,13,16,25,27,0.91,0.49,0.77,4*0E
$GNGSA,A,3,03,04,07,,,,,,,,,,0.91,0.49,0.77,5*00
"
agip2.gcm.collector.plugin.core.contents.persist.mongo.nmea.Nmea,652dcea9e4b0775fde045d98,2023-10-17T00:00:41.575Z,2023-10-17T00:00:41.000Z,f95e0f0fd0ec45969b40da2a681114e1,"$GNGGA,000041.000,3557.515628,N,12658.620234,E,4,48,0.50,22.1,M,20.6,M,1.0,*61
$GNRMC,000041.000,A,3557.515628,N,12658.620234,E,0.002,268.59,171023,,,R,V*28
$GNVTG,268.59,T,,M,0.002,N,0.004,K,D*20
$GNGSA,A,3,05,06,07,11,13,15,20,29,30,,,,0.94,0.50,0.79,1*0F
$GNGSA,A,3,68,69,70,83,84,85,,,,,,,0.94,0.50,0.79,2*08
$GNGSA,A,3,03,07,08,13,15,26,34,,,,,,0.94,0.50,0.79,3*0C
$GNGSA,A,3,02,03,04,05,06,07,08,10,13,16,25,27,0.94,0.50,0.79,4*0D
$GNGSA,A,3,03,04,07,,,,,,,,,,0.94,0.50,0.79,5*03
"
agip2.gcm.collector.plugin.core.contents.persist.mongo.nmea.Nmea,652dceaae4b0775fde045ecb,2023-10-17T00:00:42.615Z,2023-10-17T00:00:42.000Z,f95e0f0fd0ec45969b40da2a681114e1,"$GNGGA,000042.000,3557.515628,N,12658.620233,E,4,48,0.46,22.1,M,20.6,M,1.0,*62
$GNRMC,000042.000,A,3557.515628,N,12658.620233,E,0.001,268.59,171023,,,R,V*2F
$GNVTG,268.59,T,,M,0.001,N,0.002,K,D*25
$GNGSA,A,3,05,06,07,11,13,15,20,29,30,,,,0.82,0.46,0.68,1*0F
$GNGSA,A,3,68,69,70,83,84,85,,,,,,,0.82,0.46,0.68,2*08
$GNGSA,A,3,03,07,08,13,15,26,34,,,,,,0.82,0.46,0.68,3*0C
$GNGSA,A,3,02,03,04,05,06,07,08,10,13,16,25,27,0.82,0.46,0.68,4*0D
$GNGSA,A,3,03,04,07,,,,,,,,,,0.82,0.46,0.68,5*03
"
agip2.gcm.collector.plugin.core.contents.persist.mongo.nmea.Nmea,652dceabe4b0775fde045fbe,2023-10-17T00:00:43.595Z,2023-10-17T00:00:43.000Z,f95e0f0fd0ec45969b40da2a681114e1,"$GNGGA,000043.000,3557.515628,N,12658.620234,E,4,47,0.48,22.1,M,20.6,M,1.0,*65
$GNRMC,000043.000,A,3557.515628,N,12658.620234,E,0.004,268.59,171023,,,R,V*2C
$GNVTG,268.59,T,,M,0.004,N,0.007,K,D*25
$GNGSA,A,3,05,06,07,11,13,15,20,29,30,,,,0.88,0.48,0.73,1*01
$GNGSA,A,3,68,69,70,83,84,85,,,,,,,0.88,0.48,0.73,2*06
$GNGSA,A,3,03,07,08,13,15,26,34,,,,,,0.88,0.48,0.73,3*02
$GNGSA,A,3,02,03,04,05,06,07,08,10,13,16,25,27,0.88,0.48,0.73,4*03
$GNGSA,A,3,03,04,07,,,,,,,,,,0.88,0.48,0.73,5*0D
"
agip2.gcm.collector.plugin.core.contents.persist.mongo.nmea.Nmea,652dceace4b0775fde0460f6,2023-10-17T00:00:44.635Z,2023-10-17T00:00:44.000Z,f95e0f0fd0ec45969b40da2a681114e1,"$GNGGA,000044.000,3557.515628,N,12658.620233,E,4,47,0.46,22.1,M,20.6,M,1.0,*6B
$GNRMC,000044.000,A,3557.515628,N,12658.620233,E,0.002,268.59,171023,,,R,V*2A
$GNVTG,268.59,T,,M,0.002,N,0.003,K,D*27
$GNGSA,A,3,05,06,07,11,13,15,20,29,30,,,,0.82,0.46,0.68,1*0F
$GNGSA,A,3,68,69,70,83,84,85,,,,,,,0.82,0.46,0.68,2*08
$GNGSA,A,3,03,07,08,13,15,26,34,,,,,,0.82,0.46,0.68,3*0C
$GNGSA,A,3,02,03,04,05,06,07,08,10,13,16,25,27,0.82,0.46,0.68,4*0D
$GNGSA,A,3,03,04,07,,,,,,,,,,0.82,0.46,0.68,5*03
"
agip2.gcm.collector.plugin.core.contents.persist.mongo.nmea.Nmea,652dceade4b0775fde0461cd,2023-10-17T00:00:45.585Z,2023-10-17T00:00:45.000Z,f95e0f0fd0ec45969b40da2a681114e1,"$GNGGA,000045.000,3557.515628,N,12658.620233,E,4,47,0.49,22.1,M,20.6,M,1.0,*65
$GNRMC,000045.000,A,3557.515628,N,12658.620233,E,0.001,268.59,171023,,,R,V*28
$GNVTG,268.59,T,,M,0.001,N,0.001,K,D*26
$GNGSA,A,3,05,06,07,11,13,15,20,29,30,,,,0.90,0.49,0.75,1*0F
$GNGSA,A,3,68,69,70,83,84,85,,,,,,,0.90,0.49,0.75,2*08
$GNGSA,A,3,03,07,08,13,15,26,34,,,,,,0.90,0.49,0.75,3*0C
$GNGSA,A,3,02,03,04,05,06,07,08,10,13,16,25,27,0.90,0.49,0.75,4*0D
$GNGSA,A,3,03,04,07,,,,,,,,,,0.90,0.49,0.75,5*03
"
agip2.gcm.collector.plugin.core.contents.persist.mongo.nmea.Nmea,652dceaee4b0775fde0462f9,2023-10-17T00:00:46.625Z,2023-10-17T00:00:46.000Z,f95e0f0fd0ec45969b40da2a681114e1,"$GNGGA,000046.000,3557.515627,N,12658.620234,E,4,47,0.48,22.1,M,20.6,M,1.0,*6F
$GNRMC,000046.000,A,3557.515627,N,12658.620234,E,0.003,268.59,171023,,,R,V*21
$GNVTG,268.59,T,,M,0.003,N,0.006,K,D*23
$GNGSA,A,3,05,06,07,11,13,15,20,29,30,,,,0.87,0.48,0.73,1*0E
$GNGSA,A,3,68,69,70,83,84,85,,,,,,,0.87,0.48,0.73,2*09
$GNGSA,A,3,03,07,08,13,15,26,34,,,,,,0.87,0.48,0.73,3*0D
$GNGSA,A,3,02,03,04,05,06,07,08,10,13,16,25,27,0.87,0.48,0.73,4*0C
$GNGSA,A,3,03,04,07,,,,,,,,,,0.87,0.48,0.73,5*02
"
agip2.gcm.collector.plugin.core.contents.persist.mongo.nmea.Nmea,652dceafe4b0775fde0463e6,2023-10-17T00:00:47.585Z,2023-10-17T00:00:47.000Z,f95e0f0fd0ec45969b40da2a681114e1,"$GNGGA,000047.000,3557.515628,N,12658.620233,E,4,47,0.51,22.1,M,20.6,M,1.0,*6E
$GNRMC,000047.000,A,3557.515628,N,12658.620233,E,0.003,268.59,171023,,,R,V*28
$GNVTG,268.59,T,,M,0.003,N,0.006,K,D*23
$GNGSA,A,3,05,06,07,11,13,15,20,29,30,,,,0.95,0.51,0.79,1*0F
$GNGSA,A,3,68,69,70,83,84,85,,,,,,,0.95,0.51,0.79,2*08
$GNGSA,A,3,03,07,08,13,15,26,34,,,,,,0.95,0.51,0.79,3*0C
$GNGSA,A,3,02,03,04,05,06,07,08,10,13,16,25,27,0.95,0.51,0.79,4*0D
$GNGSA,A,3,03,04,07,,,,,,,,,,0.95,0.51,0.79,5*03
"
agip2.gcm.collector.plugin.core.contents.persist.mongo.nmea.Nmea,652dceb0e4b0775fde046511,2023-10-17T00:00:48.615Z,2023-10-17T00:00:48.000Z,f95e0f0fd0ec45969b40da2a681114e1,"$GNGGA,000048.000,3557.515628,N,12658.620233,E,4,47,0.51,22.1,M,20.6,M,1.0,*61
$GNRMC,000048.000,A,3557.515628,N,12658.620233,E,0.002,268.59,171023,,,R,V*26
$GNVTG,268.59,T,,M,0.002,N,0.004,K,D*20
$GNGSA,A,3,05,06,07,11,13,15,20,29,30,,,,0.94,0.51,0.79,1*0E
$GNGSA,A,3,68,69,70,83,84,85,,,,,,,0.94,0.51,0.79,2*09
$GNGSA,A,3,03,07,08,13,15,26,34,,,,,,0.94,0.51,0.79,3*0D
$GNGSA,A,3,02,03,04,05,06,07,08,10,13,16,25,27,0.94,0.51,0.79,4*0C
$GNGSA,A,3,03,04,07,,,,,,,,,,0.94,0.51,0.79,5*02
"
agip2.gcm.collector.plugin.core.contents.persist.mongo.nmea.Nmea,652dceb1e4b0775fde04661b,2023-10-17T00:00:49.635Z,2023-10-17T00:00:49.000Z,f95e0f0fd0ec45969b40da2a681114e1,"$GNGGA,000049.000,3557.515628,N,12658.620234,E,4,48,0.49,22.1,M,20.6,M,1.0,*61
$GNRMC,000049.000,A,3557.515628,N,12658.620234,E,0.000,268.59,171023,,,R,V*22
$GNVTG,268.59,T,,M,0.000,N,0.001,K,D*27
$GNGSA,A,3,05,06,07,11,13,15,20,29,30,,,,0.88,0.49,0.73,1*00
$GNGSA,A,3,68,69,70,83,84,85,,,,,,,0.88,0.49,0.73,2*07
$GNGSA,A,3,03,07,08,13,15,26,34,,,,,,0.88,0.49,0.73,3*03
$GNGSA,A,3,02,03,04,05,06,07,08,10,13,16,25,27,0.88,0.49,0.73,4*02
$GNGSA,A,3,03,04,07,,,,,,,,,,0.88,0.49,0.73,5*0C
"
agip2.gcm.collector.plugin.core.contents.persist.mongo.nmea.Nmea,652dceb2e4b0775fde046732,2023-10-17T00:00:50.635Z,2023-10-17T00:00:50.000Z,f95e0f0fd0ec45969b40da2a681114e1,"$GNGGA,000050.000,3557.515628,N,12658.620234,E,4,47,0.49,22.1,M,20.6,M,1.0,*66
$GNRMC,000050.000,A,3557.515628,N,12658.620234,E,0.001,268.59,171023,,,R,V*2B
$GNVTG,268.59,T,,M,0.001,N,0.001,K,D*26
$GNGSA,A,3,05,06,07,11,13,15,20,29,30,,,,0.88,0.49,0.73,1*00
$GNGSA,A,3,68,69,70,83,84,85,,,,,,,0.88,0.49,0.73,2*07
$GNGSA,A,3,03,07,08,13,15,26,34,,,,,,0.88,0.49,0.73,3*03
$GNGSA,A,3,02,03,04,05,06,07,08,10,13,16,25,27,0.88,0.49,0.73,4*02
$GNGSA,A,3,03,04,07,,,,,,,,,,0.88,0.49,0.73,5*0C
"
agip2.gcm.collector.plugin.core.contents.persist.mongo.nmea.Nmea,652dceb3e4b0775fde046805,2023-10-17T00:00:51.575Z,2023-10-17T00:00:51.000Z,f95e0f0fd0ec45969b40da2a681114e1,"$GNGGA,000051.000,3557.515628,N,12658.620234,E,4,48,0.51,22.1,M,20.6,M,1.0,*61
$GNRMC,000051.000,A,3557.515628,N,12658.620234,E,0.002,268.59,171023,,,R,V*29
$GNVTG,268.59,T,,M,0.002,N,0.004,K,D*20
$GNGSA,A,3,05,06,07,11,13,15,20,29,30,,,,0.98,0.51,0.84,1*00
$GNGSA,A,3,68,69,70,83,84,85,,,,,,,0.98,0.51,0.84,2*07
$GNGSA,A,3,03,07,08,13,15,26,34,,,,,,0.98,0.51,0.84,3*03
$GNGSA,A,3,02,03,04,05,06,07,08,10,13,16,25,27,0.98,0.51,0.84,4*02
$GNGSA,A,3,03,04,07,,,,,,,,,,0.98,0.51,0.84,5*0C
"
agip2.gcm.collector.plugin.core.contents.persist.mongo.nmea.Nmea,652dceb4e4b0775fde04692e,2023-10-17T00:00:52.606Z,2023-10-17T00:00:52.000Z,f95e0f0fd0ec45969b40da2a681114e1,"$GNGGA,000052.000,3557.515628,N,12658.620234,E,4,48,0.52,22.1,M,20.6,M,1.0,*61
$GNRMC,000052.000,A,3557.515628,N,12658.620234,E,0.001,268.59,171023,,,R,V*29
$GNVTG,268.59,T,,M,0.001,N,0.001,K,D*26
$GNGSA,A,3,05,06,07,11,13,15,20,29,30,,,,1.01,0.52,0.86,1*00
$GNGSA,A,3,68,69,70,83,84,85,,,,,,,1.01,0.52,0.86,2*07
$GNGSA,A,3,03,07,08,13,15,26,34,,,,,,1.01,0.52,0.86,3*03
$GNGSA,A,3,02,03,04,05,06,07,08,10,13,16,25,27,1.01,0.52,0.86,4*02
$GNGSA,A,3,03,04,07,,,,,,,,,,1.01,0.52,0.86,5*0C
"
agip2.gcm.collector.plugin.core.contents.persist.mongo.nmea.Nmea,652dceb5e4b0775fde046a23,2023-10-17T00:00:53.575Z,2023-10-17T00:00:53.000Z,f95e0f0fd0ec45969b40da2a681114e1,"$GNGGA,000053.000,3557.515628,N,12658.620234,E,4,47,0.52,22.1,M,20.6,M,1.0,*6F
$GNRMC,000053.000,A,3557.515628,N,12658.620234,E,0.001,268.59,171023,,,R,V*28
$GNVTG,268.59,T,,M,0.001,N,0.001,K,D*26
$GNGSA,A,3,05,06,07,11,13,15,20,29,30,,,,0.99,0.52,0.85,1*03
$GNGSA,A,3,68,69,70,83,84,85,,,,,,,0.99,0.52,0.85,2*04
$GNGSA,A,3,03,07,08,13,15,26,34,,,,,,0.99,0.52,0.85,3*00
$GNGSA,A,3,02,03,04,05,06,07,08,10,13,16,25,27,0.99,0.52,0.85,4*01
$GNGSA,A,3,03,04,07,,,,,,,,,,0.99,0.52,0.85,5*0F
"
agip2.gcm.collector.plugin.core.contents.persist.mongo.nmea.Nmea,652dceb6e4b0775fde046b55,2023-10-17T00:00:54.635Z,2023-10-17T00:00:54.000Z,f95e0f0fd0ec45969b40da2a681114e1,"$GNGGA,000054.000,3557.515628,N,12658.620235,E,4,47,0.49,22.1,M,20.6,M,1.0,*63
$GNRMC,000054.000,A,3557.515628,N,12658.620235,E,0.001,268.59,171023,,,R,V*2E
$GNVTG,268.59,T,,M,0.001,N,0.002,K,D*25
$GNGSA,A,3,05,06,07,11,13,15,20,29,30,,,,0.91,0.49,0.76,1*0D
$GNGSA,A,3,68,69,70,83,84,85,,,,,,,0.91,0.49,0.76,2*0A
$GNGSA,A,3,03,07,08,13,15,26,34,,,,,,0.91,0.49,0.76,3*0E
$GNGSA,A,3,02,03,04,05,06,07,08,10,13,16,24,25,0.91,0.49,0.76,4*0C
$GNGSA,A,3,03,04,07,,,,,,,,,,0.91,0.49,0.76,5*01
"
agip2.gcm.collector.plugin.core.contents.persist.mongo.nmea.Nmea,652dceb7e4b0775fde046c2c,2023-10-17T00:00:55.575Z,2023-10-17T00:00:55.000Z,f95e0f0fd0ec45969b40da2a681114e1,"$GNGGA,000055.000,3557.515628,N,12658.620233,E,4,48,0.53,22.1,M,20.6,M,1.0,*60
$GNRMC,000055.000,A,3557.515628,N,12658.620233,E,0.001,268.59,171023,,,R,V*29
$GNVTG,268.59,T,,M,0.001,N,0.002,K,D*25
$GNGSA,A,3,05,06,07,11,13,15,20,29,30,,,,1.00,0.53,0.85,1*03
$GNGSA,A,3,68,69,70,83,84,85,,,,,,,1.00,0.53,0.85,2*04
$GNGSA,A,3,03,07,08,13,15,26,34,,,,,,1.00,0.53,0.85,3*00
$GNGSA,A,3,02,03,04,05,06,07,08,10,13,16,24,25,1.00,0.53,0.85,4*02
$GNGSA,A,3,03,04,07,,,,,,,,,,1.00,0.53,0.85,5*0F
"
agip2.gcm.collector.plugin.core.contents.persist.mongo.nmea.Nmea,652dceb8e4b0775fde046d48,2023-10-17T00:00:56.590Z,2023-10-17T00:00:56.000Z,f95e0f0fd0ec45969b40da2a681114e1,"$GNGGA,000056.000,3557.515629,N,12658.620234,E,4,48,0.54,22.1,M,20.6,M,1.0,*62
$GNRMC,000056.000,A,3557.515629,N,12658.620234,E,0.001,268.59,171023,,,R,V*2C
$GNVTG,268.59,T,,M,0.001,N,0.002,K,D*25
$GNGSA,A,3,05,06,07,11,13,15,20,29,30,,,,1.03,0.54,0.87,1*05
$GNGSA,A,3,68,69,70,83,84,85,,,,,,,1.03,0.54,0.87,2*02
$GNGSA,A,3,03,07,08,13,15,26,34,,,,,,1.03,0.54,0.87,3*06
$GNGSA,A,3,02,03,04,05,06,07,08,10,13,16,24,25,1.03,0.54,0.87,4*04
$GNGSA,A,3,03,04,07,,,,,,,,,,1.03,0.54,0.87,5*09
"
agip2.gcm.collector.plugin.core.contents.persist.mongo.nmea.Nmea,652dceb9e4b0775fde046e4b,2023-10-17T00:00:57.575Z,2023-10-17T00:00:57.000Z,f95e0f0fd0ec45969b40da2a681114e1,"$GNGGA,000057.000,3557.515628,N,12658.620233,E,4,47,0.50,22.1,M,20.6,M,1.0,*6E
$GNRMC,000057.000,A,3557.515628,N,12658.620233,E,0.002,268.59,171023,,,R,V*28
$GNVTG,268.59,T,,M,0.002,N,0.005,K,D*21
$GNGSA,A,3,05,06,11,13,15,20,29,30,,,,,0.94,0.50,0.80,1*0E
$GNGSA,A,3,68,69,70,83,84,85,,,,,,,0.94,0.50,0.80,2*0E
$GNGSA,A,3,03,07,08,13,15,26,34,,,,,,0.94,0.50,0.80,3*0A
$GNGSA,A,3,02,03,04,05,06,07,08,10,13,16,25,27,0.94,0.50,0.80,4*0B
$GNGSA,A,3,03,04,07,,,,,,,,,,0.94,0.50,0.80,5*05
"
agip2.gcm.collector.plugin.core.contents.persist.mongo.nmea.Nmea,652dcebae4b0775fde046f6a,2023-10-17T00:00:58.615Z,2023-10-17T00:00:58.000Z,f95e0f0fd0ec45969b40da2a681114e1,"$GNGGA,000058.000,3557.515628,N,12658.620234,E,4,46,0.51,22.1,M,20.6,M,1.0,*66
$GNRMC,000058.000,A,3557.515628,N,12658.620234,E,0.001,268.59,171023,,,R,V*23
$GNVTG,268.59,T,,M,0.001,N,0.002,K,D*25
$GNGSA,A,3,05,06,11,13,15,20,29,30,,,,,0.98,0.51,0.83,1*00
$GNGSA,A,3,68,69,70,83,84,85,,,,,,,0.98,0.51,0.83,2*00
$GNGSA,A,3,03,07,08,13,15,26,34,,,,,,0.98,0.51,0.83,3*04
$GNGSA,A,3,02,03,04,05,06,07,08,10,13,16,25,27,0.98,0.51,0.83,4*05
$GNGSA,A,3,03,04,07,,,,,,,,,,0.98,0.51,0.83,5*0B
"
agip2.gcm.collector.plugin.core.contents.persist.mongo.nmea.Nmea,652dcebbe4b0775fde047054,2023-10-17T00:00:59.575Z,2023-10-17T00:00:59.000Z,f95e0f0fd0ec45969b40da2a681114e1,"$GNGGA,000059.000,3557.515628,N,12658.620233,E,4,45,0.50,22.1,M,20.6,M,1.0,*62
$GNRMC,000059.000,A,3557.515628,N,12658.620233,E,0.000,268.59,171023,,,R,V*24
$GNVTG,268.59,T,,M,0.000,N,0.001,K,D*27
$GNGSA,A,3,05,06,11,13,15,20,29,30,,,,,0.92,0.50,0.77,1*00
$GNGSA,A,3,68,69,70,83,84,85,,,,,,,0.92,0.50,0.77,2*00
$GNGSA,A,3,03,07,08,13,15,26,34,,,,,,0.92,0.50,0.77,3*04
$GNGSA,A,3,02,03,04,05,06,08,10,13,16,25,27,28,0.92,0.50,0.77,4*08
$GNGSA,A,3,03,04,07,,,,,,,,,,0.92,0.50,0.77,5*0B
"
agip2.gcm.collector.plugin.core.contents.persist.mongo.nmea.Nmea,652dcebce4b0775fde04717b,2023-10-17T00:01:00.605Z,2023-10-17T00:01:00.000Z,f95e0f0fd0ec45969b40da2a681114e1,"$GNGGA,000100.000,3557.515628,N,12658.620233,E,4,46,0.50,22.1,M,20.6,M,1.0,*6C
$GNRMC,000100.000,A,3557.515628,N,12658.620233,E,0.003,268.59,171023,,,R,V*2A
$GNVTG,268.59,T,,M,0.003,N,0.005,K,D*20
$GNGSA,A,3,05,06,11,13,15,20,29,30,,,,,0.95,0.50,0.81,1*0E
$GNGSA,A,3,68,69,70,83,84,85,,,,,,,0.95,0.50,0.81,2*0E
$GNGSA,A,3,03,07,08,13,15,26,34,,,,,,0.95,0.50,0.81,3*0A
$GNGSA,A,3,02,03,04,05,06,07,08,10,13,16,25,27,0.95,0.50,0.81,4*0B
$GNGSA,A,3,03,04,07,,,,,,,,,,0.95,0.50,0.81,5*05
"
agip2.gcm.collector.plugin.core.contents.persist.mongo.nmea.Nmea,652dcebde4b0775fde047288,2023-10-17T00:01:01.605Z,2023-10-17T00:01:01.000Z,f95e0f0fd0ec45969b40da2a681114e1,"$GNGGA,000101.000,3557.515628,N,12658.620233,E,4,47,0.49,22.1,M,20.6,M,1.0,*64
$GNRMC,000101.000,A,3557.515628,N,12658.620233,E,0.001,268.59,171023,,,R,V*29
$GNVTG,268.59,T,,M,0.001,N,0.002,K,D*25
$GNGSA,A,3,05,06,11,13,15,20,29,30,,,,,0.91,0.49,0.76,1*0A
$GNGSA,A,3,68,69,70,83,84,85,,,,,,,0.91,0.49,0.76,2*0A
$GNGSA,A,3,03,07,08,13,15,26,34,,,,,,0.91,0.49,0.76,3*0E
$GNGSA,A,3,02,03,04,05,06,07,08,10,13,16,24,25,0.91,0.49,0.76,4*0C
$GNGSA,A,3,03,04,07,,,,,,,,,,0.91,0.49,0.76,5*01
"
agip2.gcm.collector.plugin.core.contents.persist.mongo.nmea.Nmea,652dcebee4b0775fde0473a2,2023-10-17T00:01:02.605Z,2023-10-17T00:01:02.000Z,f95e0f0fd0ec45969b40da2a681114e1,"$GNGGA,000102.000,3557.515627,N,12658.620232,E,4,47,0.50,22.1,M,20.6,M,1.0,*61
$GNRMC,000102.000,A,3557.515627,N,12658.620232,E,0.002,268.59,171023,,,R,V*27
$GNVTG,268.59,T,,M,0.002,N,0.004,K,D*20
$GNGSA,A,3,05,06,11,13,15,20,29,30,,,,,0.95,0.50,0.81,1*0E
$GNGSA,A,3,68,69,70,83,84,85,,,,,,,0.95,0.50,0.81,2*0E
$GNGSA,A,3,03,07,08,13,15,26,34,,,,,,0.95,0.50,0.81,3*0A
$GNGSA,A,3,02,03,04,05,06,07,08,10,13,16,24,25,0.95,0.50,0.81,4*08
$GNGSA,A,3,03,04,07,,,,,,,,,,0.95,0.50,0.81,5*05
"
agip2.gcm.collector.plugin.core.contents.persist.mongo.nmea.Nmea,652dcebfe4b0775fde047485,2023-10-17T00:01:03.575Z,2023-10-17T00:01:03.000Z,f95e0f0fd0ec45969b40da2a681114e1,"$GNGGA,000103.000,3557.515628,N,12658.620232,E,4,48,0.53,22.1,M,20.6,M,1.0,*63
$GNRMC,000103.000,A,3557.515628,N,12658.620232,E,0.002,268.59,171023,,,R,V*29
$GNVTG,268.59,T,,M,0.002,N,0.004,K,D*20
$GNGSA,A,3,05,06,07,11,13,15,20,29,30,,,,1.03,0.53,0.88,1*0D
$GNGSA,A,3,68,69,70,83,84,85,,,,,,,1.03,0.53,0.88,2*0A
$GNGSA,A,3,03,07,08,13,15,26,34,,,,,,1.03,0.53,0.88,3*0E
$GNGSA,A,3,02,03,04,05,06,07,08,10,13,16,24,25,1.03,0.53,0.88,4*0C
$GNGSA,A,3,03,04,07,,,,,,,,,,1.03,0.53,0.88,5*01
"
agip2.gcm.collector.plugin.core.contents.persist.mongo.nmea.Nmea,652dcec0e4b0775fde0475c6,2023-10-17T00:01:04.623Z,2023-10-17T00:01:04.000Z,f95e0f0fd0ec45969b40da2a681114e1,"$GNGGA,000104.000,3557.515628,N,12658.620233,E,4,47,0.56,22.1,M,20.6,M,1.0,*6F
$GNRMC,000104.000,A,3557.515628,N,12658.620233,E,0.002,268.59,171023,,,R,V*2F
$GNVTG,268.59,T,,M,0.002,N,0.003,K,D*27
$GNGSA,A,3,05,06,07,11,13,15,20,29,30,,,,1.11,0.56,0.96,1*04
$GNGSA,A,3,68,69,70,83,84,85,,,,,,,1.11,0.56,0.96,2*03
$GNGSA,A,3,03,07,08,13,15,26,34,,,,,,1.11,0.56,0.96,3*07
$GNGSA,A,3,02,03,04,05,06,07,08,10,13,16,25,27,1.11,0.56,0.96,4*06
$GNGSA,A,3,03,04,07,,,,,,,,,,1.11,0.56,0.96,5*08
"
agip2.gcm.collector.plugin.core.contents.persist.mongo.nmea.Nmea,652dcec1e4b0775fde0476a6,2023-10-17T00:01:05.565Z,2023-10-17T00:01:05.000Z,f95e0f0fd0ec45969b40da2a681114e1,"$GNGGA,000105.000,3557.515628,N,12658.620233,E,4,47,0.53,22.1,M,20.6,M,1.0,*6B
$GNRMC,000105.000,A,3557.515628,N,12658.620233,E,0.001,268.59,171023,,,R,V*2D
$GNVTG,268.59,T,,M,0.001,N,0.003,K,D*24
$GNGSA,A,3,05,06,07,11,13,15,20,29,30,,,,1.04,0.53,0.89,1*0B
$GNGSA,A,3,68,69,70,83,84,85,,,,,,,1.04,0.53,0.89,2*0C
$GNGSA,A,3,03,07,08,13,15,26,34,,,,,,1.04,0.53,0.89,3*08
$GNGSA,A,3,02,03,04,05,06,07,08,10,13,16,25,27,1.04,0.53,0.89,4*09
$GNGSA,A,3,03,04,07,,,,,,,,,,1.04,0.53,0.89,5*07
"
agip2.gcm.collector.plugin.core.contents.persist.mongo.nmea.Nmea,652dcec2e4b0775fde0477ee,2023-10-17T00:01:06.635Z,2023-10-17T00:01:06.000Z,f95e0f0fd0ec45969b40da2a681114e1,"$GNGGA,000106.000,3557.515628,N,12658.620233,E,4,47,0.50,22.1,M,20.6,M,1.0,*6B
$GNRMC,000106.000,A,3557.515628,N,12658.620233,E,0.001,268.59,171023,,,R,V*2E
$GNVTG,268.59,T,,M,0.001,N,0.002,K,D*25
$GNGSA,A,3,05,06,07,11,13,15,20,29,30,,,,0.96,0.50,0.82,1*09
$GNGSA,A,3,68,69,70,83,84,85,,,,,,,0.96,0.50,0.82,2*0E
$GNGSA,A,3,03,07,08,13,15,26,34,,,,,,0.96,0.50,0.82,3*0A
$GNGSA,A,3,02,03,04,05,06,07,08,10,13,16,25,27,0.96,0.50,0.82,4*0B
$GNGSA,A,3,03,04,07,,,,,,,,,,0.96,0.50,0.82,5*05
"
agip2.gcm.collector.plugin.core.contents.persist.mongo.nmea.Nmea,652dcec3e4b0775fde0478c5,2023-10-17T00:01:07.575Z,2023-10-17T00:01:07.000Z,f95e0f0fd0ec45969b40da2a681114e1,"$GNGGA,000107.000,3557.515628,N,12658.620232,E,4,47,0.50,22.1,M,20.6,M,1.0,*6B
$GNRMC,000107.000,A,3557.515628,N,12658.620232,E,0.003,268.59,171023,,,R,V*2C
$GNVTG,268.59,T,,M,0.003,N,0.005,K,D*20
$GNGSA,A,3,05,06,07,11,13,15,20,29,30,,,,0.96,0.50,0.82,1*09
$GNGSA,A,3,68,69,70,83,84,85,,,,,,,0.96,0.50,0.82,2*0E
$GNGSA,A,3,03,07,08,13,15,26,34,,,,,,0.96,0.50,0.82,3*0A
$GNGSA,A,3,02,03,04,05,06,07,08,10,13,16,25,27,0.96,0.50,0.82,4*0B
$GNGSA,A,3,03,04,07,,,,,,,,,,0.96,0.50,0.82,5*05
"
agip2.gcm.collector.plugin.core.contents.persist.mongo.nmea.Nmea,652dcec4e4b0775fde047a04,2023-10-17T00:01:08.636Z,2023-10-17T00:01:08.000Z,f95e0f0fd0ec45969b40da2a681114e1,"$GNGGA,000108.000,3557.515627,N,12658.620233,E,4,47,0.55,22.1,M,20.6,M,1.0,*6F
$GNRMC,000108.000,A,3557.515627,N,12658.620233,E,0.003,268.59,171023,,,R,V*2D
$GNVTG,268.59,T,,M,0.003,N,0.006,K,D*23
$GNGSA,A,3,05,07,11,13,15,20,29,30,06,,,,1.10,0.55,0.95,1*05
$GNGSA,A,3,68,69,70,83,84,85,,,,,,,1.10,0.55,0.95,2*02
$GNGSA,A,3,03,07,08,13,15,26,34,,,,,,1.10,0.55,0.95,3*06
$GNGSA,A,3,02,03,04,05,06,07,08,10,13,16,25,27,1.10,0.55,0.95,4*07
$GNGSA,A,3,03,04,07,,,,,,,,,,1.10,0.55,0.95,5*09
"
agip2.gcm.collector.plugin.core.contents.persist.mongo.nmea.Nmea,652dcec5e4b0775fde047ada,2023-10-17T00:01:09.575Z,2023-10-17T00:01:09.000Z,f95e0f0fd0ec45969b40da2a681114e1,"$GNGGA,000109.000,3557.515628,N,12658.620233,E,4,46,0.56,22.1,M,20.6,M,1.0,*63
$GNRMC,000109.000,A,3557.515628,N,12658.620233,E,0.002,268.59,171023,,,R,V*22
$GNVTG,268.59,T,,M,0.002,N,0.004,K,D*20
$GNGSA,A,3,05,06,07,11,13,15,20,29,30,,,,1.13,0.56,0.97,1*07
$GNGSA,A,3,68,69,70,83,84,85,,,,,,,1.13,0.56,0.97,2*00
$GNGSA,A,3,03,07,08,13,15,34,,,,,,,1.13,0.56,0.97,3*00
$GNGSA,A,3,02,03,04,05,06,07,08,10,13,16,25,27,1.13,0.56,0.97,4*05
$GNGSA,A,3,03,04,07,,,,,,,,,,1.13,0.56,0.97,5*0B
"
agip2.gcm.collector.plugin.core.contents.persist.mongo.nmea.Nmea,652dcec6e4b0775fde047c0f,2023-10-17T00:01:10.605Z,2023-10-17T00:01:10.000Z,f95e0f0fd0ec45969b40da2a681114e1,"$GNGGA,000110.000,3557.515628,N,12658.620234,E,4,47,0.55,22.1,M,20.6,M,1.0,*6E
$GNRMC,000110.000,A,3557.515628,N,12658.620234,E,0.001,268.59,171023,,,R,V*2E
$GNVTG,268.59,T,,M,0.001,N,0.003,K,D*24
$GNGSA,A,3,05,07,11,13,15,20,29,30,06,,,,1.10,0.55,0.95,1*05
$GNGSA,A,3,68,69,70,83,84,85,,,,,,,1.10,0.55,0.95,2*02
$GNGSA,A,3,03,07,08,13,15,34,,,,,,,1.10,0.55,0.95,3*02
$GNGSA,A,3,02,03,04,05,06,07,08,10,13,16,25,27,1.10,0.55,0.95,4*07
$GNGSA,A,3,03,04,07,,,,,,,,,,1.10,0.55,0.95,5*09
"
agip2.gcm.collector.plugin.core.contents.persist.mongo.nmea.Nmea,652dcec7e4b0775fde047d07,2023-10-17T00:01:11.575Z,2023-10-17T00:01:11.000Z,f95e0f0fd0ec45969b40da2a681114e1,"$GNGGA,000111.000,3557.515629,N,12658.620233,E,4,47,0.50,22.1,M,20.6,M,1.0,*6C
$GNRMC,000111.000,A,3557.515629,N,12658.620233,E,0.002,268.59,171023,,,R,V*2A
$GNVTG,268.59,T,,M,0.002,N,0.004,K,D*20
$GNGSA,A,3,05,06,07,11,13,15,20,29,30,,,,0.96,0.50,0.82,1*09
$GNGSA,A,3,68,69,70,83,84,85,,,,,,,0.96,0.50,0.82,2*0E
$GNGSA,A,3,03,07,08,13,15,26,34,,,,,,0.96,0.50,0.82,3*0A
$GNGSA,A,3,02,03,04,05,06,07,08,10,13,16,25,27,0.96,0.50,0.82,4*0B
$GNGSA,A,3,03,04,07,,,,,,,,,,0.96,0.50,0.82,5*05
"
agip2.gcm.collector.plugin.core.contents.persist.mongo.nmea.Nmea,652dcec8e4b0775fde047e3c,2023-10-17T00:01:12.625Z,2023-10-17T00:01:12.000Z,f95e0f0fd0ec45969b40da2a681114e1,"$GNGGA,000112.000,3557.515628,N,12658.620233,E,4,48,0.56,22.1,M,20.6,M,1.0,*67
$GNRMC,000112.000,A,3557.515628,N,12658.620233,E,0.001,268.59,171023,,,R,V*2B
$GNVTG,268.59,T,,M,0.001,N,0.002,K,D*25
$GNGSA,A,3,05,07,11,13,15,20,29,30,06,,,,1.11,0.56,0.95,1*07
$GNGSA,A,3,68,69,70,83,84,85,,,,,,,1.11,0.56,0.95,2*00
$GNGSA,A,3,03,07,08,13,15,26,34,,,,,,1.11,0.56,0.95,3*04
$GNGSA,A,3,02,03,04,05,06,07,08,10,13,16,25,27,1.11,0.56,0.95,4*05
$GNGSA,A,3,03,04,07,,,,,,,,,,1.11,0.56,0.95,5*0B
"
agip2.gcm.collector.plugin.core.contents.persist.mongo.nmea.Nmea,652dcec9e4b0775fde047f25,2023-10-17T00:01:13.595Z,2023-10-17T00:01:13.000Z,f95e0f0fd0ec45969b40da2a681114e1,"$GNGGA,000113.000,3557.515627,N,12658.620233,E,4,47,0.50,22.1,M,20.6,M,1.0,*60
$GNRMC,000113.000,A,3557.515627,N,12658.620233,E,0.003,268.59,171023,,,R,V*27
$GNVTG,268.59,T,,M,0.003,N,0.005,K,D*20
$GNGSA,A,3,05,07,11,13,15,20,29,30,06,,,,0.96,0.50,0.82,1*09
$GNGSA,A,3,68,69,70,83,84,85,,,,,,,0.96,0.50,0.82,2*0E
$GNGSA,A,3,03,07,08,13,15,26,34,,,,,,0.96,0.50,0.82,3*0A
$GNGSA,A,3,02,03,04,05,06,07,08,10,13,16,25,27,0.96,0.50,0.82,4*0B
$GNGSA,A,3,03,04,07,,,,,,,,,,0.96,0.50,0.82,5*05
"
agip2.gcm.collector.plugin.core.contents.persist.mongo.nmea.Nmea,652dcecae4b0775fde04802e,2023-10-17T00:01:14.586Z,2023-10-17T00:01:14.000Z,f95e0f0fd0ec45969b40da2a681114e1,"$GNGGA,000114.000,3557.515619,N,12658.620158,E,4,48,0.51,22.1,M,20.6,M,1.0,*6A
$GNRMC,000114.000,A,3557.515619,N,12658.620158,E,0.797,268.60,171023,,,R,V*23
$GNVTG,268.60,T,,M,0.797,N,1.476,K,D*21
$GNGSA,A,3,05,06,07,11,13,15,20,29,30,,,,0.98,0.51,0.84,1*00
$GNGSA,A,3,68,69,70,83,84,85,,,,,,,0.98,0.51,0.84,2*07
$GNGSA,A,3,03,07,08,13,15,26,34,,,,,,0.98,0.51,0.84,3*03
$GNGSA,A,3,02,03,04,05,06,07,08,10,13,16,24,25,0.98,0.51,0.84,4*01
$GNGSA,A,3,03,04,07,,,,,,,,,,0.98,0.51,0.84,5*0C
"
agip2.gcm.collector.plugin.core.contents.persist.mongo.nmea.Nmea,652dcecbe4b0775fde04812a,2023-10-17T00:01:15.565Z,2023-10-17T00:01:15.000Z,f95e0f0fd0ec45969b40da2a681114e1,"$GNGGA,000115.000,3557.515597,N,12658.619414,E,4,47,0.50,22.1,M,20.6,M,1.0,*67
$GNRMC,000115.000,A,3557.515597,N,12658.619414,E,3.781,268.62,171023,,,R,V*26
$GNVTG,268.62,T,,M,3.781,N,7.003,K,D*27
$GNGSA,A,3,05,07,11,13,15,20,29,30,06,,,,0.99,0.50,0.86,1*02
$GNGSA,A,3,68,69,70,83,84,85,,,,,,,0.99,0.50,0.86,2*05
$GNGSA,A,3,03,07,08,13,15,34,,,,,,,0.99,0.50,0.86,3*05
$GNGSA,A,3,02,03,04,05,06,07,08,10,13,16,25,27,0.99,0.50,0.86,4*00
$GNGSA,A,3,03,04,07,,,,,,,,,,0.99,0.50,0.86,5*0E
"
agip2.gcm.collector.plugin.core.contents.persist.mongo.nmea.Nmea,652dcecce4b0775fde048276,2023-10-17T00:01:16.645Z,2023-10-17T00:01:16.000Z,f95e0f0fd0ec45969b40da2a681114e1,"$GNGGA,000116.000,3557.515588,N,12658.617617,E,4,47,0.50,22.1,M,20.6,M,1.0,*65
$GNRMC,000116.000,A,3557.515588,N,12658.617617,E,6.414,268.79,171023,,,R,V*24
$GNVTG,268.79,T,,M,6.414,N,11.877,K,D*1B
$GNGSA,A,3,05,06,07,11,13,15,20,29,30,,,,0.99,0.50,0.86,1*02
$GNGSA,A,3,68,69,70,83,84,85,,,,,,,0.99,0.50,0.86,2*05
$GNGSA,A,3,03,07,08,13,15,34,26,,,,,,0.99,0.50,0.86,3*01
$GNGSA,A,3,02,03,04,05,06,07,08,10,13,25,27,28,0.99,0.50,0.86,4*0D
$GNGSA,A,3,03,04,07,,,,,,,,,,0.99,0.50,0.86,5*0E
"
agip2.gcm.collector.plugin.core.contents.persist.mongo.nmea.Nmea,652dcecde4b0775fde048351,2023-10-17T00:01:17.585Z,2023-10-17T00:01:17.000Z,f95e0f0fd0ec45969b40da2a681114e1,"$GNGGA,000117.000,3557.515531,N,12658.615098,E,4,47,0.50,22.2,M,20.6,M,1.0,*66
$GNRMC,000117.000,A,3557.515531,N,12658.615098,E,8.327,268.73,171023,,,R,V*27
$GNVTG,268.73,T,,M,8.327,N,15.420,K,D*12
$GNGSA,A,3,05,06,07,11,13,15,20,29,30,,,,0.99,0.50,0.86,1*02
$GNGSA,A,3,68,69,70,83,84,85,,,,,,,0.99,0.50,0.86,2*05
$GNGSA,A,3,03,07,08,13,15,26,34,,,,,,0.99,0.50,0.86,3*01
$GNGSA,A,3,02,03,04,05,07,08,10,13,16,25,27,28,0.99,0.50,0.86,4*0C
$GNGSA,A,3,03,04,07,,,,,,,,,,0.99,0.50,0.86,5*0E
"
agip2.gcm.collector.plugin.core.contents.persist.mongo.nmea.Nmea,652dcecee4b0775fde04847e,2023-10-17T00:01:18.635Z,2023-10-17T00:01:18.000Z,f95e0f0fd0ec45969b40da2a681114e1,"$GNGGA,000118.000,3557.515458,N,12658.611949,E,4,46,0.50,22.2,M,20.6,M,1.0,*67
$GNRMC,000118.000,A,3557.515458,N,12658.611949,E,10.119,268.52,171023,,,R,V*12
$GNVTG,268.52,T,,M,10.119,N,18.739,K,D*21
$GNGSA,A,3,05,06,07,11,13,15,20,29,30,,,,1.02,0.50,0.89,1*0E
$GNGSA,A,3,68,69,70,83,84,85,,,,,,,1.02,0.50,0.89,2*09
$GNGSA,A,3,03,07,08,13,15,26,34,,,,,,1.02,0.50,0.89,3*0D
$GNGSA,A,3,02,03,04,05,07,08,10,13,25,27,28,30,1.02,0.50,0.89,4*04
$GNGSA,A,3,03,04,07,,,,,,,,,,1.02,0.50,0.89,5*02
"
agip2.gcm.collector.plugin.core.contents.persist.mongo.nmea.Nmea,652dcecfe4b0775fde04855f,2023-10-17T00:01:19.575Z,2023-10-17T00:01:19.000Z,f95e0f0fd0ec45969b40da2a681114e1,"$GNGGA,000119.000,3557.515410,N,12658.608232,E,4,47,0.51,22.2,M,20.6,M,1.0,*65
$GNRMC,000119.000,A,3557.515410,N,12658.608232,E,11.110,268.65,171023,,,R,V*1C
$GNVTG,268.65,T,,M,11.110,N,20.573,K,D*2A
$GNGSA,A,3,05,06,07,11,13,15,20,29,30,,,,1.03,0.51,0.89,1*0E
$GNGSA,A,3,68,69,70,83,84,85,,,,,,,1.03,0.51,0.89,2*09
$GNGSA,A,3,03,07,08,13,15,26,34,,,,,,1.03,0.51,0.89,3*0D
$GNGSA,A,3,02,03,04,05,06,07,08,10,13,16,25,27,1.03,0.51,0.89,4*0C
$GNGSA,A,3,03,04,07,,,,,,,,,,1.03,0.51,0.89,5*02
"
agip2.gcm.collector.plugin.core.contents.persist.mongo.nmea.Nmea,652dced0e4b0775fde048669,2023-10-17T00:01:20.575Z,2023-10-17T00:01:20.000Z,f95e0f0fd0ec45969b40da2a681114e1,"$GNGGA,000120.000,3557.515333,N,12658.604432,E,4,47,0.51,22.1,M,20.6,M,1.0,*60
$GNRMC,000120.000,A,3557.515333,N,12658.604432,E,11.099,268.54,171023,,,R,V*18
$GNVTG,268.54,T,,M,11.099,N,20.553,K,D*2A
$GNGSA,A,3,05,06,07,11,13,15,20,29,30,,,,1.03,0.51,0.89,1*0E
$GNGSA,A,3,68,69,70,83,84,85,,,,,,,1.03,0.51,0.89,2*09
$GNGSA,A,3,03,07,08,13,15,26,34,,,,,,1.03,0.51,0.89,3*0D
$GNGSA,A,3,02,03,04,05,06,07,08,10,13,16,25,27,1.03,0.51,0.89,4*0C
$GNGSA,A,3,03,04,07,,,,,,,,,,1.03,0.51,0.89,5*02
"
agip2.gcm.collector.plugin.core.contents.persist.mongo.nmea.Nmea,652dced1e4b0775fde04876c,2023-10-17T00:01:21.555Z,2023-10-17T00:01:21.000Z,f95e0f0fd0ec45969b40da2a681114e1,"$GNGGA,000121.000,3557.515259,N,12658.600727,E,4,48,0.50,22.0,M,20.6,M,1.0,*60
$GNRMC,000121.000,A,3557.515259,N,12658.600727,E,10.485,268.56,171023,,,R,V*1D
$GNVTG,268.56,T,,M,10.485,N,19.417,K,D*2B
$GNGSA,A,3,05,06,07,11,13,15,20,29,30,,,,0.99,0.50,0.85,1*01
$GNGSA,A,3,68,69,70,83,84,85,,,,,,,0.99,0.50,0.85,2*06
$GNGSA,A,3,03,07,08,13,15,26,34,,,,,,0.99,0.50,0.85,3*02
$GNGSA,A,3,02,03,04,05,06,07,08,10,13,16,25,27,0.99,0.50,0.85,4*03
$GNGSA,A,3,03,04,07,,,,,,,,,,0.99,0.50,0.85,5*0D
"
agip2.gcm.collector.plugin.core.contents.persist.mongo.nmea.Nmea,652dced2e4b0775fde0488c2,2023-10-17T00:01:22.645Z,2023-10-17T00:01:22.000Z,f95e0f0fd0ec45969b40da2a681114e1,"$GNGGA,000122.000,3557.515167,N,12658.597098,E,4,48,0.53,21.9,M,20.6,M,1.0,*6A
$GNRMC,000122.000,A,3557.515167,N,12658.597098,E,10.697,268.33,171023,,,R,V*1C
$GNVTG,268.33,T,,M,10.697,N,19.810,K,D*22
$GNGSA,A,3,05,06,07,11,13,15,20,29,30,,,,1.09,0.53,0.95,1*0B
$GNGSA,A,3,68,69,70,83,84,85,,,,,,,1.09,0.53,0.95,2*0C
$GNGSA,A,3,03,07,08,13,15,26,34,,,,,,1.09,0.53,0.95,3*08
$GNGSA,A,3,02,03,04,05,06,07,08,10,13,16,25,27,1.09,0.53,0.95,4*09
$GNGSA,A,3,03,04,07,,,,,,,,,,1.09,0.53,0.95,5*07
"
agip2.gcm.collector.plugin.core.contents.persist.mongo.nmea.Nmea,652dced3e4b0775fde0489a0,2023-10-17T00:01:23.595Z,2023-10-17T00:01:23.000Z,f95e0f0fd0ec45969b40da2a681114e1,"$GNGGA,000123.000,3557.515113,N,12658.593428,E,4,48,0.47,21.8,M,20.6,M,1.0,*67
$GNRMC,000123.000,A,3557.515113,N,12658.593428,E,10.667,268.84,171023,,,R,V*16
$GNVTG,268.84,T,,M,10.667,N,19.753,K,D*29
$GNGSA,A,3,05,06,07,11,13,15,20,29,30,,,,0.86,0.47,0.71,1*02
$GNGSA,A,3,68,69,70,83,84,85,,,,,,,0.86,0.47,0.71,2*05
$GNGSA,A,3,03,07,08,13,15,26,34,,,,,,0.86,0.47,0.71,3*01
$GNGSA,A,3,02,03,04,05,06,07,08,10,13,16,25,27,0.86,0.47,0.71,4*00
$GNGSA,A,3,03,04,07,,,,,,,,,,0.86,0.47,0.71,5*0E
"
agip2.gcm.collector.plugin.core.contents.persist.mongo.nmea.Nmea,652dced4e4b0775fde048ac7,2023-10-17T00:01:24.625Z,2023-10-17T00:01:24.000Z,f95e0f0fd0ec45969b40da2a681114e1,"$GNGGA,000124.000,3557.515123,N,12658.589543,E,4,47,0.48,21.7,M,20.6,M,1.0,*6B
$GNRMC,000124.000,A,3557.515123,N,12658.589543,E,12.095,269.72,171023,,,R,V*14
$GNVTG,269.72,T,,M,12.095,N,22.397,K,D*2C
$GNGSA,A,3,05,06,07,11,13,15,20,29,30,,,,0.89,0.48,0.74,1*07
$GNGSA,A,3,68,69,70,83,84,85,,,,,,,0.89,0.48,0.74,2*00
$GNGSA,A,3,03,07,08,13,15,26,34,,,,,,0.89,0.48,0.74,3*04
$GNGSA,A,3,02,03,04,05,06,07,08,10,13,16,25,27,0.89,0.48,0.74,4*05
$GNGSA,A,3,03,04,07,,,,,,,,,,0.89,0.48,0.74,5*0B
"
agip2.gcm.collector.plugin.core.contents.persist.mongo.nmea.Nmea,652dced5e4b0775fde048bd4,2023-10-17T00:01:25.615Z,2023-10-17T00:01:25.000Z,f95e0f0fd0ec45969b40da2a681114e1,"$GNGGA,000125.000,3557.515127,N,12658.585101,E,4,45,0.50,21.7,M,20.6,M,1.0,*6B
$GNRMC,000125.000,A,3557.515127,N,12658.585101,E,13.724,269.64,171023,,,R,V*14
$GNVTG,269.64,T,,M,13.724,N,25.415,K,D*2D
$GNGSA,A,3,05,06,07,11,13,15,20,29,30,,,,0.98,0.50,0.84,1*01
$GNGSA,A,3,68,69,70,83,84,85,,,,,,,0.98,0.50,0.84,2*06
$GNGSA,A,3,03,07,08,13,15,26,34,,,,,,0.98,0.50,0.84,3*02
$GNGSA,A,3,02,03,04,05,06,08,10,13,16,25,27,28,0.98,0.50,0.84,4*0E
$GNGSA,A,3,03,04,07,,,,,,,,,,0.98,0.50,0.84,5*0D
"
agip2.gcm.collector.plugin.core.contents.persist.mongo.nmea.Nmea,652dced6e4b0775fde048ceb,2023-10-17T00:01:26.635Z,2023-10-17T00:01:26.000Z,f95e0f0fd0ec45969b40da2a681114e1,"$GNGGA,000126.000,3557.514939,N,12658.580145,E,4,46,0.54,21.6,M,20.6,M,1.0,*6D
$GNRMC,000126.000,A,3557.514939,N,12658.580145,E,15.213,268.07,171023,,,R,V*17
$GNVTG,268.07,T,,M,15.213,N,28.171,K,D*24
$GNGSA,A,3,05,06,07,11,13,15,20,30,,,,,1.04,0.54,0.89,1*07
$GNGSA,A,3,68,69,70,83,84,85,,,,,,,1.04,0.54,0.89,2*0B
$GNGSA,A,3,03,07,08,13,15,26,34,,,,,,1.04,0.54,0.89,3*0F
$GNGSA,A,3,02,03,04,05,06,07,08,10,13,16,25,27,1.04,0.54,0.89,4*0E
$GNGSA,A,3,03,04,07,,,,,,,,,,1.04,0.54,0.89,5*00
"
agip2.gcm.collector.plugin.core.contents.persist.mongo.nmea.Nmea,652dced7e4b0775fde048db4,2023-10-17T00:01:27.545Z,2023-10-17T00:01:27.000Z,f95e0f0fd0ec45969b40da2a681114e1,"$GNGGA,000127.000,3557.514715,N,12658.574672,E,4,46,0.54,21.5,M,20.6,M,1.0,*67
$GNRMC,000127.000,A,3557.514715,N,12658.574672,E,16.756,267.20,171023,,,R,V*13
$GNVTG,267.20,T,,M,16.756,N,31.029,K,D*2D
$GNGSA,A,3,05,06,11,13,15,20,30,,,,,,0.99,0.54,0.83,1*0F
$GNGSA,A,3,68,69,70,83,84,85,,,,,,,0.99,0.54,0.83,2*04
$GNGSA,A,3,03,07,08,13,15,26,34,,,,,,0.99,0.54,0.83,3*00
$GNGSA,A,3,02,03,04,05,06,07,08,10,13,16,25,27,0.99,0.54,0.83,4*01
$GNGSA,A,3,03,04,07,,,,,,,,,,0.99,0.54,0.83,5*0F
"
agip2.gcm.collector.plugin.core.contents.persist.mongo.nmea.Nmea,652dced8e4b0775fde048ec6,2023-10-17T00:01:28.550Z,2023-10-17T00:01:28.000Z,f95e0f0fd0ec45969b40da2a681114e1,"$GNGGA,000128.000,3557.514416,N,12658.568677,E,4,45,0.49,21.4,M,20.6,M,1.0,*6E
$GNRMC,000128.000,A,3557.514416,N,12658.568677,E,18.365,266.73,171023,,,R,V*19
$GNVTG,266.73,T,,M,18.365,N,34.008,K,D*26
$GNGSA,A,3,05,06,07,11,13,15,20,30,,,,,0.88,0.49,0.73,1*0B
$GNGSA,A,3,68,69,70,84,85,,,,,,,,0.88,0.49,0.73,2*0C
$GNGSA,A,3,03,07,08,13,15,26,34,,,,,,0.88,0.49,0.73,3*03
$GNGSA,A,3,02,03,04,05,06,07,08,10,13,16,24,25,0.88,0.49,0.73,4*01
$GNGSA,A,3,03,04,07,,,,,,,,,,0.88,0.49,0.73,5*0C
"
agip2.gcm.collector.plugin.core.contents.persist.mongo.nmea.Nmea,652dced9e4b0775fde048fc7,2023-10-17T00:01:29.513Z,2023-10-17T00:01:29.000Z,f95e0f0fd0ec45969b40da2a681114e1,"$GNGGA,000129.000,3557.514202,N,12658.562113,E,4,47,0.48,21.3,M,20.6,M,1.0,*67
$GNRMC,000129.000,A,3557.514202,N,12658.562113,E,20.015,267.40,171023,,,R,V*1A
$GNVTG,267.40,T,,M,20.015,N,37.064,K,D*21
$GNGSA,A,3,05,06,07,11,13,15,20,29,30,,,,0.89,0.48,0.75,1*06
$GNGSA,A,3,68,69,70,84,85,,,,,,,,0.89,0.48,0.75,2*0A
$GNGSA,A,3,03,07,08,13,15,26,34,,,,,,0.89,0.48,0.75,3*05
$GNGSA,A,3,02,03,04,05,06,07,08,10,13,16,24,25,0.89,0.48,0.75,4*07
$GNGSA,A,3,03,04,07,,,,,,,,,,0.89,0.48,0.75,5*0A
"
agip2.gcm.collector.plugin.core.contents.persist.mongo.nmea.Nmea,652dcedae4b0775fde0490ee,2023-10-17T00:01:30.555Z,2023-10-17T00:01:30.000Z,f95e0f0fd0ec45969b40da2a681114e1,"$GNGGA,000130.000,3557.514009,N,12658.554992,E,4,46,0.48,21.2,M,20.6,M,1.0,*62
$GNRMC,000130.000,A,3557.514009,N,12658.554992,E,21.773,267.84,171023,,,R,V*11
$GNVTG,267.84,T,,M,21.773,N,40.320,K,D*2C
